     3.01           OBSERVATION DATA    M: Mixed            RINEX VERSION / TYPE
CONVBIN demo5 b34f.1                    20220527 015946 UTC PGM / RUN BY / DATE 
log: /home/igor/git/flutter_rtklib/test/data/rcvraw/GMSD7_20COMMENT             
format: RTCM 3                                              COMMENT             
format: RTCM 3                                              COMMENT             
log: /home/igor/git/flutter_rtklib/test/data/rcvraw/GMSD7_20COMMENT             
0611                                                        MARKER NAME         
                                                            MARKER NUMBER       
                                                            MARKER TYPE         
                                                            OBSERVER / AGENCY   
                    TRIMBLE NETR9                           REC # / TYPE / VERS 
                                                            ANT # / TYPE        
        0.0000        0.0000        0.0000                  APPROX POSITION XYZ 
        0.0000        0.0000        0.0000                  ANTENNA: DELTA H/E/N
C   10 C2I L2I D2I S2I C7I L7I S7I C6I L6I S6I              SYS / # / OBS TYPES 
  2012    10    13    23    59   58.0000000     GPS         TIME OF FIRST OBS   
  2012    10    14    00    04   14.0000000     GPS         TIME OF LAST OBS    
C L2I                                                       SYS / PHASE SHIFT   
C L7I                                                       SYS / PHASE SHIFT   
C L6I                                                       SYS / PHASE SHIFT   
                                                            END OF HEADER       
> 2012 10 13 23 59 58.0000000  0  8                     
C01  36658401.500   190889944.0781        -34.179          44.313    36658394.274   147608203.7911         47.813    36658389.059   155113681.7521         46.625  
C03  38700455.367   201522705.6521         -0.246          40.500    38700452.574   155830142.0771         42.125    38700447.008   163753709.3501         42.500  
C04  37550171.141   195533346.6921        -19.348          42.500    37550167.820   151198775.4161         45.000    37550161.488   158887018.3071         45.688  
C07  36594339.258   190557069.2181      -1040.906          44.500    36594335.340   147350528.2121         48.875    36594326.078   154843371.7781         49.313  
C08  36631036.625   190747409.9701       -210.434          44.625    36631031.922   147497539.0421         48.500    36631024.008   154997414.2861         49.125  
C10  36394080.274   189513795.4491       -441.836          44.813    36394079.148   146543620.1461         48.125    36394069.656   153994999.2201         48.688  
C11  24046707.969   125216837.6761       2140.438          41.875    24046708.875    96826123.5871         45.500    24046699.672   101749479.9641         45.313  
C12  21574253.063   112343534.4361       -148.781          47.313    21574250.238    86870843.8771         52.313    21574242.207    91288005.9381         53.875  
> 2012 10 13 23 59 59.0000000  0  8                     
C01  36658408.140   190889978.187         -34.059          44.188    36658400.660   147608230.168          47.813    36658395.211   155113709.465          46.813  
C03  38700455.555   201522705.884          -0.121          40.500    38700452.918   155830142.252          42.313    38700447.113   163753709.541          42.375  
C04  37550174.945   195533366.045         -19.301          43.000    37550171.496   151198790.382          45.000    37550165.223   158887034.028          45.625  
C07  36594539.344   190558110.135       -1040.973          44.813    36594535.199   147351333.118          48.688    36594526.054   154844217.606          49.375  
C08  36631076.883   190747620.251        -210.195          44.875    36631072.156   147497701.643          48.500    36631064.305   154997585.158          49.188  
C10  36394165.320   189514237.251        -441.793          45.375    36394163.633   146543961.773          47.875    36394154.433   153995358.222          48.625  
C11  24046297.422   125214697.318        2140.258          42.125    24046297.824    96824468.530          45.313    24046288.563   101747740.753          45.375  
C12  21574281.367   112343683.328        -149.008          47.375    21574278.883    86870959.014          53.000    21574270.852    91288126.932          53.875  
> 2012 10 14 00 00 00.0000000  0  8                     
C01  36658414.789   190890012.336         -34.281          44.125    36658407.711   147608256.571          47.813    36658402.203   155113737.213          47.000  
C03  38700455.797   201522706.132          -0.426          40.625    38700452.617   155830142.446          42.813    38700446.992   163753709.744          41.625  
C04  37550178.555   195533385.440         -19.512          42.688    37550175.207   151198805.380          45.125    37550168.817   158887049.787          45.500  
C07  36594739.125   190559151.237       -1041.266          44.625    36594735.277   147352138.167          48.813    36594725.961   154845063.583          49.500  
C08  36631117.492   190747830.556        -210.516          44.688    36631112.324   147497864.262          48.813    36631104.824   154997756.046          49.313  
C10  36394249.953   189514679.240        -442.191          44.688    36394248.308   146544303.547          48.125    36394238.813   153995717.366          48.813  
C11  24045886.453   125212557.234        2139.886          41.813    24045886.863    96822813.683          45.500    24045877.426   101746001.756          45.313  
C12  21574309.922   112343832.586        -149.567          47.188    21574307.613    86871074.430          52.813    21574299.582    91288248.214          54.000  
> 2012 10 14 00 00 01.0000000  0  8                     
C01  36658421.383   190890046.473         -34.289          44.313    36658413.965   147608282.968          47.875    36658408.805   155113764.952          46.875  
C03  38700455.695   201522706.369          -0.398          40.875    38700452.438   155830142.629          42.500    38700447.047   163753709.940          42.125  
C04  37550182.203   195533404.839         -19.574          42.625    37550179.066   151198820.381          45.188    37550172.562   158887065.553          45.188  
C07  36594938.867   190560192.523       -1041.481          44.813    36594934.929   147352943.352          48.625    36594925.672   154845909.717          49.688  
C08  36631157.789   190748040.893        -210.481          44.688    36631152.808   147498026.910          48.375    36631144.899   154997926.960          49.188  
C10  36394335.274   189515121.439        -442.457          44.875    36394333.328   146544645.484          47.688    36394324.246   153996076.688          49.000  
C11  24045475.149   125210417.435        2139.562          42.188    24045475.930    96821159.060          45.375    24045466.492   101744262.988          45.500  
C12  21574338.695   112343982.198        -149.887          47.188    21574336.328    86871190.119          52.813    21574328.180    91288369.784          53.875  
> 2012 10 14 00 00 02.0000000  0  8                     
C01  36658427.859   190890080.778         -34.246          43.688    36658420.426   147608309.489          47.875    36658415.031   155113792.830          47.188  
C03  38700455.117   201522706.764          -0.254          41.000    38700452.543   155830142.934          42.625    38700447.094   163753710.259          42.313  
C04  37550186.039   195533424.341         -19.293          42.375    37550182.719   151198835.457          45.625    37550176.094   158887081.398          45.125  
C07  36595138.804   190561234.108       -1041.539          44.875    36595135.129   147353748.768          48.813    36595125.985   154846756.085          49.813  
C08  36631198.211   190748251.359        -210.398          44.625    36631193.531   147498189.655          48.813    36631185.562   154998097.983          49.500  
C10  36394420.304   189515563.958        -442.426          45.000    36394418.109   146544987.666          47.813    36394408.906   153996436.276          48.875  
C11  24045064.672   125208278.040        2139.340          42.313    24045065.097    96819504.743          45.625    24045055.781   101742524.562          45.813  
C12  21574367.648   112344132.310        -150.180          47.188    21574365.105    86871306.197          52.313    21574356.957    91288491.764          53.875  
> 2012 10 14 00 00 03.0000000  0  8                     
C01  36658434.078   190890115.015         -34.301          43.625    36658427.317   147608335.966          48.000    36658421.984   155113820.652          47.000  
C03  38700455.930   201522707.082          -0.387          40.500    38700452.711   155830143.183          42.188    38700447.203   163753710.518          42.625  
C04  37550189.484   195533443.822         -19.504          42.125    37550186.773   151198850.519          45.000    37550180.094   158887097.222          45.313  
C07  36595338.937   190562275.741       -1041.801          44.500    36595334.727   147354554.223          48.813    36595325.933   154847602.501          49.625  
C08  36631238.899   190748461.751        -210.430          44.500    36631233.613   147498352.345          48.375    36631225.761   154998268.949          49.313  
C10  36394505.265   189516006.591        -442.734          44.875    36394503.891   146545329.935          48.000    36394494.453   153996795.947          48.875  
C11  24044653.898   125206138.846        2138.985          42.313    24044654.266    96817850.581          45.313    24044644.891   101740786.292          45.813  
C12  21574396.414   112344282.676        -150.547          47.188    21574393.781    86871422.465          52.313    21574385.929    91288613.944          53.813  
> 2012 10 14 00 00 04.0000000  0  8                     
C01  36658441.195   190890149.225         -34.082          43.813    36658433.648   147608362.414          47.875    36658428.258   155113848.446          46.688  
C03  38700455.414   201522707.414          -0.289          40.688    38700452.863   155830143.441          42.125    38700447.062   163753710.784          42.625  
C04  37550193.312   195533463.267         -19.223          42.188    37550190.602   151198865.553          45.188    37550183.922   158887113.023          45.313  
C07  36595539.242   190563317.575       -1041.855          44.500    36595535.144   147355359.834          48.625    36595525.941   154848449.074          49.500  
C08  36631279.149   190748672.155        -210.293          44.625    36631274.188   147498515.049          48.313    36631266.336   154998439.920          49.625  
C10  36394590.008   189516449.375        -442.766          44.688    36394588.406   146545672.325          47.875    36394579.148   153997155.746          48.500  
C11  24044242.734   125203999.918        2138.922          42.313    24044243.445    96816196.622          45.188    24044234.008   101739048.243          45.813  
C12  21574425.570   112344433.396        -150.719          47.125    21574423.191    86871539.011          52.313    21574415.219    91288736.413          53.813  
> 2012 10 14 00 00 05.0000000  0  8                     
C01  36658447.711   190890183.422         -34.109          43.875    36658439.789   147608388.861          47.875    36658434.750   155113876.233          47.125  
C03  38700455.727   201522707.688          -0.059          40.688    38700452.805   155830143.651          42.188    38700446.941   163753711.004          42.313  
C04  37550196.898   195533482.697         -19.367          42.500    37550194.434   151198880.575          45.000    37550187.695   158887128.814          45.125  
C07  36595739.203   190564359.509       -1041.895          44.625    36595735.453   147356165.519          48.875    36595726.133   154849295.727          49.313  
C08  36631319.359   190748882.492        -210.207          44.813    36631314.820   147498677.697          48.875    36631306.617   154998610.837          49.313  
C10  36394675.476   189516892.338        -442.847          44.813    36394673.426   146546014.855          48.500    36394664.164   153997515.690          48.625  
C11  24043832.758   125201861.229        2138.711          42.125    24043832.801    96814542.855          45.000    24043823.481   101737310.385          45.813  
C12  21574454.516   112344584.434        -151.110          47.313    21574452.250    86871655.799          52.313    21574444.043    91288859.143          53.688  
> 2012 10 14 00 00 06.0000000  0  8                     
C01  36658454.039   190890217.503         -33.981          44.375    36658446.977   147608415.213          47.813    36658441.469   155113903.925          47.188  
C03  38700455.891   201522707.865          -0.153          40.688    38700452.645   155830143.791          42.313    38700447.254   163753711.152          42.500  
C04  37550201.109   195533501.996         -19.227          42.813    37550198.008   151198895.501          44.688    37550191.504   158887144.495          45.313  
C07  36595939.188   190565401.486       -1042.000          45.000    36595935.074   147356971.239          48.875    36595925.989   154850142.417          49.313  
C08  36631360.000   190749092.741        -210.254          45.125    36631355.172   147498840.273          48.813    36631347.082   154998781.681          49.688  
C10  36394760.180   189517335.367        -443.039          45.188    36394759.098   146546357.430          48.625    36394749.547   153997875.687          48.688  
C11  24043421.680   125199722.677        2138.465          42.625    24043422.203    96812889.195          45.313    24043412.711   101735572.634          45.875  
C12  21574483.476   112344735.719        -151.387          47.313    21574481.191    86871772.784          52.688    21574473.222    91288982.080          53.875  
> 2012 10 14 00 00 07.0000000  0  8                     
C01  36658460.867   190890251.694         -34.406          44.313    36658453.347   147608441.651          47.625    36658447.898   155113931.708          47.313  
C03  38700455.774   201522708.138          -0.320          40.313    38700452.941   155830143.995          41.313    38700447.434   163753711.367          42.313  
C04  37550204.422   195533521.414         -19.594          42.813    37550201.555   151198910.514          44.875    37550194.930   158887160.270          45.188  
C07  36596139.641   190566443.739       -1042.543          45.188    36596135.351   147357777.180          48.375    36596126.445   154850989.331          49.688  
C08  36631400.289   190749303.087        -210.520          45.313    36631395.461   147499002.924          48.813    36631387.551   154998952.607          49.313  
C10  36394845.570   189517778.656        -443.559          44.875    36394843.867   146546700.207          48.375    36394834.430   153998235.895          49.000  
C11  24043010.852   125197584.516        2137.805          42.000    24043011.488    96811235.836          45.188    24043002.109   101733835.211          45.625  
C12  21574512.820   112344887.434        -152.059          47.625    21574510.176    86871890.097          52.500    21574502.148    91289105.357          53.500  
> 2012 10 14 00 00 08.0000000  0  8                     
C01  36658467.305   190890285.894         -34.066          44.500    36658459.910   147608468.099          47.813    36658454.461   155113959.499          47.188  
C03  38700455.742   201522708.409          -0.039          40.188    38700452.820   155830144.208          40.875    38700447.309   163753711.593          42.625  
C04  37550208.594   195533540.818         -19.293          43.000    37550205.606   151198925.517          44.813    37550198.746   158887176.037          45.375  
C07  36596339.735   190567486.133       -1042.305          45.625    36596335.598   147358583.221          48.375    36596326.511   154851836.357          49.313  
C08  36631440.477   190749513.420        -210.188          45.625    36631435.922   147499165.567          48.688    36631427.895   154999123.518          49.375  
C10  36394930.726   189518222.117        -443.398          45.188    36394928.774   146547043.118          48.375    36394919.512   153998596.245          48.813  
C11  24042600.375   125195446.592        2137.832          42.188    24042600.949    96809582.662          45.188    24042591.629   101732097.971          45.313  
C12  21574541.789   112345039.485        -152.121          47.500    21574539.477    86872007.673          52.313    21574531.269    91289228.911          53.375  
> 2012 10 14 00 00 09.0000000  0  8                     
C01  36658473.664   190890320.056         -34.215          45.000    36658467.035   147608494.514          47.625    36658461.289   155113987.254          47.000  
C03  38700456.078   201522708.726          -0.320          40.375    38700453.148   155830144.452          40.875    38700447.520   163753711.847          42.375  
C04  37550212.219   195533560.249         -19.516          43.125    37550208.918   151198940.539          45.000    37550202.473   158887191.828          45.125  
C07  36596540.149   190568528.712       -1042.656          45.500    36596535.918   147359389.410          48.375    36596526.891   154852683.540          49.125  
C08  36631481.047   190749723.781        -210.434          45.625    36631475.711   147499328.227          48.625    36631467.742   154999294.449          49.813  
C10  36395016.226   189518665.801        -443.871          45.313    36395014.086   146547386.207          48.125    36395004.531   153998956.771          48.813  
C11  24042189.883   125193308.948        2137.496          42.875    24042190.422    96807929.702          45.000    24042180.926   101730360.958          45.625  
C12  21574571.305   112345191.888        -152.598          47.500    21574568.695    86872125.522          52.313    21574560.430    91289352.753          53.375  
> 2012 10 14 00 00 10.0000000  0  8                     
C01  36658480.086   190890354.242         -34.160          44.875    36658473.266   147608520.946          48.125    36658467.636   155114015.034          47.125  
C03  38700455.688   201522709.014          -0.289          40.188    38700453.403   155830144.677          41.125    38700447.543   163753712.081          42.375  
C04  37550216.344   195533579.639         -19.309          43.125    37550212.906   151198955.536          44.875    37550206.344   158887207.582          45.125  
C07  36596740.094   190569571.415       -1042.715          45.813    36596735.992   147360195.694          48.688    36596726.793   154853530.820          49.125  
C08  36631521.367   190749934.094        -210.250          45.125    36631516.949   147499490.859          48.813    36631508.918   154999465.347          49.625  
C10  36395100.930   189519109.615        -443.883          45.500    36395099.594   146547729.391          48.188    36395090.277   153999317.406          48.500  
C11  24041779.602   125191171.538        2137.332          43.000    24041780.281    96806276.921          45.375    24041770.613   101728624.140          45.813  
C12  21574600.656   112345344.611        -152.828          47.500    21574597.984    86872243.615          52.500    21574589.723    91289476.834          53.375  
> 2012 10 14 00 00 11.0000000  0  8                     
C01  36658487.047   190890388.455         -34.211          44.875    36658479.918   147608547.404          47.875    36658474.406   155114042.833          47.000  
C03  38700456.312   201522709.320          -0.278          40.313    38700453.453   155830144.912          41.188    38700447.477   163753712.325          42.188  
C04  37550219.351   195533599.086         -19.375          43.313    37550216.610   151198970.572          44.688    37550210.222   158887223.384          45.313  
C07  36596940.531   190570614.338       -1042.949          45.688    36596936.621   147361002.146          48.813    36596927.360   154854378.284          49.313  
C08  36631561.883   190750144.448        -210.254          45.125    36631557.301   147499653.517          48.625    36631549.152   154999636.278          49.500  
C10  36395186.664   189519553.686        -444.098          45.625    36395184.426   146548072.772          48.625    36395175.223   153999678.254          48.813  
C11  24041368.984   125189034.438        2137.039          42.875    24041369.684    96804624.372          45.188    24041360.070   101726887.568          45.375  
C12  21574629.742   112345497.718        -153.176          47.375    21574627.664    86872362.005          52.125    21574619.691    91289601.240          53.688  
> 2012 10 14 00 00 12.0000000  0  8                     
C01  36658493.391   190890422.725         -34.371          44.688    36658486.140   147608573.903          47.813    36658480.746   155114070.682          47.188  
C03  38700456.586   201522709.695          -0.387          40.375    38700453.539   155830145.201          41.125    38700447.383   163753712.626          42.125  
C04  37550223.820   195533618.560         -19.516          43.313    37550220.047   151198985.625          44.688    37550213.539   158887239.202          45.313  
C07  36597140.453   190571657.456       -1043.238          45.125    36597136.629   147361808.748          48.813    36597127.308   154855225.901          48.875  
C08  36631601.922   190750354.845        -210.488          44.813    36631597.461   147499816.210          48.313    36631589.430   154999807.241          49.625  
C10  36395271.484   189519997.944        -444.449          45.000    36395269.918   146548416.302          48.625    36395260.426   154000039.254          48.875  
C11  24040958.922   125186897.659        2136.637          43.000    24040959.199    96802972.080          45.500    24040949.586   101725151.260          46.188  
C12  21574659.344   112345651.192        -153.676          47.188    21574656.719    86872480.683          52.000    21574648.805    91289725.943          53.688  
> 2012 10 14 00 00 13.0000000  0  8                     
C01  36658500.133   190890456.970         -34.324          45.000    36658492.555   147608600.381          47.875    36658487.101   155114098.506          47.188  
C03  38700456.633   201522710.015          -0.312          40.688    38700453.449   155830145.450          41.375    38700447.820   163753712.887          42.000  
C04  37550227.258   195533638.014         -19.449          43.188    37550223.988   151199000.666          45.125    37550217.426   158887255.013          45.375  
C07  36597341.258   190572700.699       -1043.281          45.313    36597336.719   147362615.446          48.500    36597327.750   154856073.625          48.688  
C08  36631642.430   190750565.215        -210.414          44.875    36631637.855   147499978.877          48.313    36631629.883   154999978.182          49.375  
C10  36395357.180   189520442.365        -444.578          45.313    36395355.340   146548759.958          48.375    36395346.136   154000400.382          48.813  
C11  24040548.938   125184761.080        2136.360          42.875    24040549.051    96801319.941          45.813    24040539.613   101723415.116          46.313  
C12  21574688.609   112345805.009        -154.019          47.313    21574686.601    86872599.621          52.313    21574678.688    91289850.933          53.875  
> 2012 10 14 00 00 14.0000000  0  8                     
C01  36658506.609   190890491.164         -34.207          45.000    36658499.234   147608626.820          48.188    36658493.785   155114126.294          46.813  
C03  38700456.890   201522710.332          -0.242          40.500    38700453.281   155830145.695          41.500    38700447.945   163753713.150          42.000  
C04  37550230.820   195533657.449         -19.488          43.188    37550227.851   151199015.691          45.313    37550221.230   158887270.800          45.375  
C07  36597541.109   190573744.069       -1043.414          45.500    36597537.305   147363422.246          48.625    36597528.219   154856921.443          49.000  
C08  36631683.039   190750775.547        -210.379          45.625    36631678.250   147500141.519          48.313    36631670.277   155000149.090          49.375  
C10  36395442.594   189520886.915        -444.727          45.875    36395440.797   146549103.710          48.375    36395431.359   154000761.612          48.813  
C11  24040138.445   125182624.782        2136.133          42.813    24040138.742    96799668.029          45.500    24040129.481   101721679.201          45.813  
C12  21574718.437   112345959.134        -154.324          47.313    21574715.945    86872718.803          52.375    21574708.094    91289976.177          53.875  
> 2012 10 14 00 00 15.0000000  0  8                     
C01  36658513.758   190890525.362         -34.179          45.188    36658505.758   147608653.264          48.125    36658500.543   155114154.084          47.188  
C03  38700456.211   201522710.630          -0.273          40.625    38700453.590   155830145.928          41.875    38700448.020   163753713.396          42.188  
C04  37550234.321   195533676.854         -19.367          43.375    37550231.320   151199030.693          45.125    37550224.641   158887286.563          45.313  
C07  36597741.695   190574787.560       -1043.531          45.375    36597737.695   147364229.134          48.375    36597728.492   154857769.363          49.625  
C08  36631723.211   190750985.869        -210.309          45.375    36631718.820   147500304.150          48.500    36631710.613   155000319.990          49.188  
C10  36395527.797   189521331.640        -444.723          46.125    36395526.168   146549447.603          48.313    36395516.613   154001122.986          48.500  
C11  24039727.851   125180488.688        2135.992          43.188    24039728.570    96798016.264          45.625    24039719.308   101719943.449          46.188  
C12  21574748.000   112346113.576        -154.547          47.625    21574745.617    86872838.227          52.000    21574737.648    91290101.673          54.125  
> 2012 10 14 00 00 16.0000000  0  8                     
C01  36658519.867   190890559.497         -34.297          45.625    36658512.430   147608679.657          48.000    36658507.039   155114181.819          46.688  
C03  38700456.492   201522710.912          -0.500          40.813    38700453.344   155830146.142          41.688    38700447.832   163753713.629          42.000  
C04  37550238.375   195533696.221         -19.519          43.375    37550235.094   151199045.668          45.188    37550228.532   158887302.304          45.500  
C07  36597942.063   190575831.174       -1043.902          45.125    36597938.195   147365036.122          48.688    36597929.227   154858617.383          49.313  
C08  36631763.906   190751196.157        -210.430          45.625    36631759.055   147500466.758          48.500    36631751.028   155000490.869          49.313  
C10  36395613.391   189521776.526        -445.152          46.188    36395611.668   146549791.617          48.500    36395602.406   154001484.492          48.688  
C11  24039317.929   125178352.853        2135.496          43.375    24039318.301    96796364.704          45.375    24039308.692   101718207.909          46.000  
C12  21574777.508   112346268.340        -155.074          47.625    21574774.984    86872957.902          52.125    21574767.011    91290227.430          53.500  
> 2012 10 14 00 00 17.0000000  0  8                     
C01  36658526.578   190890593.682         -34.230          45.313    36658518.610   147608706.093          48.188    36658513.567   155114209.599          46.688  
C03  38700456.547   201522711.170          -0.340          40.188    38700453.519   155830146.342          41.813    38700447.832   163753713.833          42.125  
C04  37550241.547   195533715.612         -19.360          43.188    37550238.707   151199060.664          45.500    37550232.320   158887318.058          45.875  
C07  36598142.672   190576874.987       -1043.867          45.000    36598138.601   147365843.263          48.688    36598129.578   154859465.566          48.875  
C08  36631804.016   190751406.450        -210.183          45.375    36631799.508   147500629.374          48.000    36631791.422   155000661.752          49.500  
C10  36395698.883   189522221.570        -445.082          45.625    36395697.109   146550135.753          48.688    36395687.672   154001846.127          48.688  
C11  24038907.883   125176217.286        2135.469          43.313    24038908.266    96794713.349          45.375    24038898.887   101716472.591          46.125  
C12  21574807.523   112346423.456        -155.219          47.188    21574805.117    86873077.846          52.500    21574797.086    91290353.476          53.688  
> 2012 10 14 00 00 18.0000000  0  8                     
C01  36658532.586   190890627.830         -34.387          45.125    36658525.379   147608732.497          47.625    36658519.926   155114237.343          46.813  
C03  38700456.828   201522711.423          -0.403          40.688    38700453.332   155830146.538          42.000    38700447.469   163753714.037          42.625  
C04  37550245.437   195533734.962         -19.519          43.625    37550242.723   151199075.622          45.625    37550235.863   158887333.776          45.688  
C07  36598342.945   190577918.920       -1044.226          45.188    36598339.492   147366650.500          48.625    36598330.230   154860313.846          48.875  
C08  36631844.492   190751616.723        -210.531          45.188    36631839.750   147500791.974          47.875    36631831.660   155000832.621          49.625  
C10  36395783.961   189522666.772        -445.523          45.813    36395782.528   146550480.006          48.625    36395773.094   154002207.889          48.813  
C11  24038497.953   125174081.995        2134.855          43.813    24038498.270    96793062.210          45.500    24038488.949   101714737.493          45.875  
C12  21574837.485   112346578.911        -155.887          47.313    21574834.910    86873198.055          51.813    21574826.883    91290479.797          53.500  
> 2012 10 14 00 00 19.0000000  0  8                     
C01  36658539.164   190890662.014         -34.156          44.500    36658532.020   147608758.928          47.375    36658526.742   155114265.123          46.688  
C03  38700456.492   201522711.708          -0.266          41.000    38700453.511   155830146.759          42.375    38700447.769   163753714.266          42.500  
C04  37550249.570   195533754.380         -19.426          43.188    37550246.297   151199090.632          45.375    37550239.672   158887349.556          45.813  
C07  36598543.383   190578963.046       -1044.219          45.000    36598539.770   147367457.887          48.688    36598530.449   154861162.282          48.875  
C08  36631884.703   190751827.010        -210.172          45.125    36631880.574   147500954.583          48.188    36631872.254   155001003.495          49.375  
C10  36395869.961   189523112.170        -445.500          45.813    36395867.887   146550824.419          48.625    36395858.566   154002569.809          48.813  
C11  24038087.601   125171946.960        2134.902          43.375    24038088.664    96791411.265          45.875    24038079.109   101713002.606          46.125  
C12  21574867.133   112346734.711        -155.910          47.375    21574864.863    86873318.528          52.000    21574856.894    91290606.396          53.688  
> 2012 10 14 00 00 20.0000000  0  8                     
C01  36658545.836   190890696.227         -34.148          44.813    36658539.000   147608785.386          47.375    36658533.371   155114292.921          46.625  
C03  38700456.266   201522712.034          -0.223          40.813    38700453.629   155830147.006          42.625    38700447.707   163753714.526          42.813  
C04  37550253.015   195533773.815         -19.375          43.313    37550249.867   151199105.665          45.625    37550243.598   158887365.353          45.188  
C07  36598744.547   190580007.366       -1044.320          45.188    36598740.160   147368265.414          48.688    36598731.133   154862010.878          48.875  
C08  36631925.336   190752037.371        -210.293          45.188    36631920.980   147501117.246          47.688    36631912.539   155001174.434          49.125  
C10  36395955.773   189523557.820        -445.683          45.625    36395953.836   146551169.019          48.188    36395944.344   154002931.941          48.875  
C11  24037677.344   125169812.242        2134.566          43.875    24037678.500    96789760.568          45.813    24037669.125   101711267.974          46.375  
C12  21574897.375   112346890.897        -156.332          47.500    21574894.930    86873439.297          52.188    21574887.019    91290733.307          54.125  
> 2012 10 14 00 00 21.0000000  0  8                     
C01  36658552.586   190890730.485         -34.266          44.625    36658545.234   147608811.876          47.688    36658539.961   155114320.759          46.813  
C03  38700457.422   201522712.418          -0.527          41.125    38700454.074   155830147.304          42.125    38700448.332   163753714.842          42.688  
C04  37550256.938   195533793.281         -19.551          43.625    37550253.797   151199120.718          45.375    37550247.289   158887381.169          45.375  
C07  36598944.641   190581051.891       -1044.590          45.375    36598940.754   147369073.108          49.000    36598931.727   154862859.638          48.625  
C08  36631965.672   190752247.738        -210.398          45.375    36631961.078   147501279.912          48.000    36631952.934   155001345.373          49.313  
C10  36396040.899   189524003.689        -446.016          45.688    36396039.047   146551513.793          48.188    36396029.730   154003294.244          48.688  
C11  24037267.570   125167677.842        2134.250          43.125    24037268.715    96788110.121          45.813    24037259.160   101709533.604          46.375  
C12  21574927.102   112347047.465        -156.840          47.313    21574924.902    86873560.365          52.188    21574916.875    91290860.535          54.188  
> 2012 10 14 00 00 22.0000000  0  8                     
C01  36658559.117   190890764.734         -34.254          44.500    36658552.012   147608838.356          47.625    36658546.562   155114348.588          46.875  
C03  38700457.117   201522712.729          -0.320          40.625    38700454.000   155830147.548          41.688    38700448.375   163753715.098          43.188  
C04  37550260.805   195533812.702         -19.262          43.125    37550257.117   151199135.736          45.625    37550250.902   158887396.950          45.500  
C07  36599145.367   190582096.521       -1044.648          45.313    36599141.383   147369880.880          48.625    36599132.414   154863708.486          48.813  
C08  36632005.945   190752458.061        -210.223          44.625    36632001.465   147501442.548          47.500    36631993.316   155001516.278          49.375  
C10  36396126.695   189524449.675        -445.957          45.375    36396125.191   146551858.654          48.188    36396115.754   154003656.646          48.688  
C11  24036857.890   125165543.665        2134.094          43.000    24036858.672    96786459.844          45.625    24036849.238   101707799.406          46.188  
C12  21574957.195   112347204.328        -156.957          47.313    21574955.137    86873681.667          52.313    21574947.106    91290987.995          54.500  
> 2012 10 14 00 00 23.0000000  0  8                     
C01  36658565.890   190890798.971         -34.285          44.313    36658558.555   147608864.830          47.813    36658553.223   155114376.407          47.375  
C03  38700457.391   201522713.098          -0.406          40.625    38700453.855   155830147.833          41.813    38700448.231   163753715.403          43.188  
C04  37550264.367   195533832.170         -19.500          42.875    37550261.312   151199150.785          45.188    37550254.867   158887412.768          45.625  
C07  36599346.102   190583141.332       -1044.922          44.688    36599341.985   147370688.793          49.000    36599332.785   154864557.478          49.000  
C08  36632046.375   190752668.424        -210.403          44.688    36632042.039   147501605.209          47.813    36632033.836   155001687.210          49.688  
C10  36396212.351   189524895.881        -446.328          45.000    36396210.578   146552203.688          48.125    36396201.141   154004019.222          48.500  
C11  24036447.961   125163409.756        2133.715          42.813    24036448.992    96784809.777          45.813    24036439.441   101706065.435          46.313  
C12  21574987.976   112347361.580        -157.453          47.313    21574985.582    86873803.262          51.875    21574977.610    91291115.778          54.375  
> 2012 10 14 00 00 24.0000000  0  8                     
C01  36658572.367   190890833.209         -34.281          44.313    36658564.980   147608891.304          47.313    36658559.527   155114404.228          47.625  
C03  38700456.898   201522713.445          -0.476          40.688    38700453.848   155830148.108          42.313    38700448.277   163753715.690          43.125  
C04  37550268.094   195533851.621         -19.516          43.000    37550265.430   151199165.826          45.000    37550258.746   158887428.569          45.500  
C07  36599546.680   190584186.317       -1045.149          45.125    36599542.965   147371496.840          48.813    36599533.703   154865406.614          49.188  
C08  36632086.875   190752878.764        -210.496          44.875    36632082.453   147501767.859          48.313    36632074.308   155001858.127          49.625  
C10  36396297.828   189525342.260        -446.590          45.188    36396296.242   146552548.856          48.125    36396286.863   154004381.937          48.875  
C11  24036038.289   125161276.118        2133.434          42.688    24036038.949    96783159.920          45.500    24036029.336   101704331.674          46.000  
C12  21575017.719   112347519.152        -157.840          47.500    21575015.508    86873925.108          51.875    21575007.598    91291243.812          54.375  
> 2012 10 14 00 00 25.0000000  0  8                     
C01  36658578.797   190890867.383         -34.254          44.688    36658571.684   147608917.730          46.688    36658566.410   155114431.996          47.188  
C03  38700457.516   201522713.731          -0.320          41.125    38700454.098   155830148.326          42.313    38700448.356   163753715.916          43.000  
C04  37550271.437   195533871.049         -19.610          43.313    37550268.617   151199180.851          45.188    37550262.402   158887444.362          45.500  
C07  36599747.430   190585231.378       -1045.211          45.375    36599743.445   147372304.943          48.688    36599734.363   154866255.809          49.313  
C08  36632127.406   190753089.031        -210.371          45.000    36632122.672   147501930.447          48.125    36632114.586   155002028.986          49.313  
C10  36396383.930   189525788.752        -446.707          45.000    36396382.367   146552894.113          48.000    36396372.754   154004744.753          49.000  
C11  24035628.492   125159142.699        2133.215          42.813    24035629.312    96781510.222          45.375    24035619.933   101702598.099          45.875  
C12  21575048.453   112347677.012        -158.121          47.500    21575046.094    86874047.176          51.875    21575038.121    91291372.088          53.813  
> 2012 10 14 00 00 26.0000000  0  8                     
C01  36658585.875   190890901.651         -34.313          44.813    36658578.258   147608944.231          46.375    36658573.043   155114459.841          47.188  
C03  38700457.305   201522714.081          -0.328          40.625    38700454.324   155830148.599          42.188    38700448.519   163753716.198          42.813  
C04  37550275.133   195533890.475         -19.394          43.375    37550272.664   151199195.870          45.125    37550266.039   158887460.137          45.188  
C07  36599948.336   190586276.653       -1045.328          45.875    36599944.012   147373113.213          48.625    36599934.929   154867105.182          49.125  
C08  36632167.492   190753299.361        -210.328          45.500    36632163.355   147502093.089          48.125    36632155.094   155002199.897          49.313  
C10  36396469.477   189526235.492        -446.890          45.188    36396467.863   146553239.562          48.000    36396458.484   154005107.763          49.188  
C11  24035218.836   125157009.585        2133.047          43.188    24035219.457    96779860.763          45.000    24035210.078   101700864.773          45.813  
C12  21575078.601   112347835.256        -158.438          47.625    21575076.324    86874169.535          51.875    21575068.414    91291500.679          53.875  
> 2012 10 14 00 00 27.0000000  0  8                     
C01  36658592.469   190890935.839         -34.285          44.500    36658584.969   147608970.661          46.375    36658579.578   155114487.622          47.313  
C03  38700457.094   201522714.359          -0.336          41.125    38700454.211   155830148.809          42.125    38700448.348   163753716.419          42.875  
C04  37550278.821   195533909.867         -19.500          43.188    37550276.336   151199210.864          45.313    37550269.711   158887475.898          45.688  
C07  36600148.672   190587322.039       -1045.574          45.313    36600145.008   147373921.573          48.625    36600135.863   154867954.643          48.625  
C08  36632207.844   190753509.642        -210.317          45.125    36632203.391   147502255.686          48.125    36632195.246   155002370.764          49.125  
C10  36396555.563   189526682.329        -446.957          45.500    36396553.793   146553585.084          47.875    36396544.180   154005470.855          49.188  
C11  24034809.812   125154876.691        2132.692          43.000    24034809.801    96778211.473          45.188    24034800.367   101699131.622          45.875  
C12  21575109.430   112347993.785        -158.746          47.375    21575106.500    86874292.121          52.500    21575098.586    91291629.495          53.875  
> 2012 10 14 00 00 28.0000000  0  8                     
C01  36658598.773   190890970.135         -34.297          44.375    36658591.375   147608997.184          46.813    36658586.097   155114515.486          47.188  
C03  38700457.703   201522714.740          -0.270          41.000    38700454.472   155830149.106          42.188    38700448.554   163753716.729          42.625  
C04  37550283.563   195533929.331         -19.394          43.500    37550279.777   151199225.914          45.188    37550273.269   158887491.712          45.375  
C07  36600349.680   190588367.657       -1045.656          44.688    36600345.664   147374730.110          48.500    36600336.402   154868804.294          48.625  
C08  36632248.406   190753720.022        -210.391          45.000    36632243.559   147502418.367          47.813    36632235.472   155002541.714          48.813  
C10  36396641.242   189527129.441        -447.172          45.375    36396639.836   146553930.819          47.875    36396630.227   154005834.170          49.313  
C11  24034399.758   125152744.157        2132.481          42.813    24034400.691    96776562.464          45.000    24034391.137   101697398.768          45.625  
C12  21575139.836   112348152.780        -159.066          47.375    21575137.398    86874415.069          52.500    21575129.367    91291758.692          54.313  
> 2012 10 14 00 00 29.0000000  0  8                     
C01  36658605.422   190891004.418         -34.266          44.500    36658598.000   147609023.687          47.313    36658592.668   155114543.342          47.125  
C03  38700457.156   201522715.102          -0.301          41.188    38700454.715   155830149.384          42.625    38700448.621   163753717.029          42.688  
C04  37550286.547   195533948.814         -19.449          43.188    37550283.809   151199240.973          45.000    37550277.125   158887507.541          45.625  
C07  36600550.344   190589413.421       -1045.746          45.125    36600546.672   147375538.765          48.813    36600537.590   154869654.064          48.813  
C08  36632288.836   190753930.352        -210.270          45.188    36632284.176   147502581.006          48.000    36632275.973   155002712.619          48.813  
C10  36396727.180   189527576.742        -447.305          45.375    36396725.258   146554276.699          48.000    36396715.707   154006197.638          48.625  
C11  24033990.508   125150611.861        2132.203          43.313    24033991.207    96774913.641          45.125    24033981.652   101695666.106          45.625  
C12  21575170.359   112348312.078        -159.461          47.375    21575167.926    86874538.246          52.313    21575160.070    91291888.132          54.375  
> 2012 10 14 00 00 30.0000000  0  8                     
C01  36658611.946   190891038.575         -34.352          44.313    36658604.238   147609050.099          47.625    36658599.258   155114571.096          46.688  
C03  38700457.617   201522715.391          -0.403          40.813    38700454.480   155830149.608          42.313    38700448.504   163753717.268          42.625  
C04  37550290.391   195533968.138         -19.348          43.313    37550287.594   151199255.916          45.313    37550280.797   158887523.246          45.313  
C07  36600750.961   190590459.249       -1045.949          45.125    36600747.586   147376347.463          49.000    36600738.152   154870503.884          48.813  
C08  36632329.156   190754140.604        -210.352          44.875    36632324.469   147502743.587          48.313    36632316.379   155002883.468          48.813  
C10  36396813.078   189528024.105        -447.496          45.313    36396811.336   146554622.629          48.813    36396802.074   154006561.153          48.313  
C11  24033580.774   125148479.722        2131.961          43.125    24033581.801    96773264.934          44.875    24033572.188   101693933.570          45.625  
C12  21575200.508   112348471.613        -159.773          47.188    21575198.321    86874661.608          52.375    21575190.465    91292017.763          54.313  
> 2012 10 14 00 00 31.0000000  0  8                     
C01  36658618.430   190891072.837         -34.156          44.125    36658611.074   147609076.588          46.875    36658605.738   155114598.937          46.688  
C03  38700457.586   201522715.779          -0.359          41.000    38700454.465   155830149.906          42.125    38700448.601   163753717.580          42.875  
C04  37550294.266   195533987.608         -19.406          42.875    37550291.145   151199270.967          45.125    37550284.461   158887539.062          45.500  
C07  36600952.359   190591505.334       -1046.039          44.688    36600948.430   147377156.359          48.625    36600939.227   154871353.908          48.813  
C08  36632369.610   190754350.905        -210.102          44.875    36632364.734   147502906.206          48.313    36632356.762   155003054.360          49.000  
C10  36396899.297   189528471.755        -447.652          45.000    36396897.195   146554968.779          48.625    36396887.821   154006924.907          48.188  
C11  24033171.695   125146347.940        2131.820          43.375    24033172.192    96771616.515          44.875    24033162.578   101692201.323          45.625  
C12  21575231.680   112348631.592        -160.055          47.375    21575229.313    86874785.311          52.313    21575221.402    91292147.766          54.188  
> 2012 10 14 00 00 32.0000000  0  8                     
C01  36658624.844   190891107.130         -34.281          43.875    36658617.563   147609103.111          47.000    36658612.054   155114626.807          46.813  
C03  38700457.789   201522716.146          -0.281          40.625    38700454.418   155830150.190          42.000    38700448.672   163753717.884          42.875  
C04  37550297.984   195534007.069         -19.438          42.813    37550294.598   151199286.017          44.875    37550288.269   158887554.878          45.375  
C07  36601153.219   190592551.576       -1046.305          44.500    36601149.340   147377965.375          49.000    36601140.136   154872204.064          49.188  
C08  36632410.086   190754561.258        -210.356          44.688    36632405.602   147503068.864          48.188    36632397.399   155003225.287          49.125  
C10  36396985.235   189528919.556        -447.875          44.875    36396983.434   146555315.053          48.875    36396974.055   154007288.784          48.375  
C11  24032762.578   125144216.451        2131.375          43.625    24032763.047    96769968.309          45.313    24032753.437   101690469.311          45.625  
C12  21575262.344   112348791.936        -160.476          47.375    21575260.258    86874909.303          52.125    21575252.114    91292278.053          54.188  
> 2012 10 14 00 00 33.0000000  0  8                     
C01  36658631.555   190891141.372         -34.227          44.125    36658624.019   147609129.589          47.188    36658618.571   155114654.632          46.625  
C03  38700458.258   201522716.489          -0.344          40.625    38700454.582   155830150.458          42.375    38700448.898   163753718.158          43.000  
C04  37550301.781   195534026.502         -19.426          43.125    37550298.836   151199301.045          44.625    37550291.981   158887570.666          45.500  
C07  36601354.031   190593597.953       -1046.445          44.875    36601350.129   147378774.501          48.813    36601341.102   154873054.336          49.500  
C08  36632450.555   190754771.536        -210.317          44.875    36632445.699   147503231.462          48.188    36632437.727   155003396.152          49.313  
C10  36397071.273   189529367.515        -448.090          45.125    36397069.625   146555661.438          48.500    36397059.953   154007652.787          48.313  
C11  24032352.961   125142085.168        2131.164          43.375    24032353.684    96768320.263          45.375    24032344.070   101688737.473          45.813  
C12  21575293.070   112348952.561        -160.730          47.375    21575291.027    86875033.511          52.188    21575283.176    91292408.583          54.375  
> 2012 10 14 00 00 34.0000000  0  8                     
C01  36658638.359   190891175.744         -34.242          44.500    36658631.039   147609156.164          47.688    36658625.469   155114682.563          46.500  
C03  38700457.633   201522716.974          -0.379          40.500    38700454.848   155830150.834          42.375    38700448.926   163753718.556          43.000  
C04  37550305.148   195534046.054         -19.449          43.000    37550302.488   151199316.161          44.625    37550295.804   158887586.557          45.500  
C07  36601555.133   190594644.598       -1046.551          44.625    36601550.973   147379583.829          48.813    36601542.008   154873904.819          49.625  
C08  36632490.734   190754981.950        -210.317          44.688    36632486.063   147503394.165          48.188    36632477.973   155003567.131          49.125  
C10  36397157.086   189529815.752        -448.148          45.000    36397155.555   146556008.037          48.688    36397146.176   154008017.015          48.375  
C11  24031943.812   125139954.285        2130.941          43.375    24031944.699    96766672.535          45.375    24031934.914   101687005.952          45.688  
C12  21575324.390   112349113.659        -161.102          47.500    21575321.808    86875158.082          52.375    21575313.777    91292539.489          54.813  
> 2012 10 14 00 00 35.0000000  0  8                     
C01  36658644.726   190891209.988         -34.176          45.000    36658637.390   147609182.643          47.500    36658631.883   155114710.387          46.688  
C03  38700458.320   201522717.345          -0.289          40.625    38700455.332   155830151.117          42.313    38700449.297   163753718.858          42.875  
C04  37550309.422   195534065.478         -19.293          43.000    37550306.133   151199331.175          44.688    37550299.391   158887602.334          45.125  
C07  36601756.102   190595691.301       -1046.664          44.625    36601752.164   147380393.204          48.688    36601743.078   154874755.345          49.500  
C08  36632530.867   190755192.243        -210.188          44.875    36632526.340   147503556.779          48.125    36632518.250   155003738.010          49.000  
C10  36397243.328   189530264.082        -448.285          45.000    36397241.578   146556354.715          48.500    36397232.082   154008381.321          48.375  
C11  24031534.781   125137823.546        2130.679          43.375    24031535.707    96765024.920          45.500    24031525.859   101685274.553          45.875  
C12  21575354.984   112349274.993        -161.430          47.500    21575352.937    86875282.833          52.375    21575344.734    91292670.586          54.188  
> 2012 10 14 00 00 36.0000000  0  8                     
C01  36658651.258   190891244.289         -34.363          45.188    36658643.969   147609209.165          47.813    36658638.692   155114738.256          46.625  
C03  38700457.922   201522717.757          -0.437          40.188    38700455.265   155830151.438          42.313    38700449.110   163753719.192          42.375  
C04  37550312.984   195534084.955         -19.445          43.313    37550310.031   151199346.235          44.875    37550303.465   158887618.158          45.313  
C07  36601956.961   190596738.190       -1046.945          45.000    36601953.164   147381202.725          48.500    36601944.312   154875606.028          49.625  
C08  36632571.758   190755402.586        -210.383          45.000    36632567.172   147503719.423          48.313    36632558.965   155003908.929          48.875  
C10  36397329.789   189530712.583        -448.535          45.188    36397328.168   146556701.523          48.313    36397318.438   154008745.762          48.500  
C11  24031125.649   125135693.103        2130.379          43.375    24031126.148    96763377.529          45.813    24031116.359   101683543.393          46.000  
C12  21575386.094   112349436.682        -161.894          47.500    21575383.895    86875407.858          52.500    21575375.984    91292801.971          53.875  
> 2012 10 14 00 00 37.0000000  0  8                     
C01  36658658.117   190891278.465         -34.125          45.000    36658650.418   147609235.595          47.875    36658645.320   155114766.023          46.813  
C03  38700458.508   201522718.028          -0.156          41.125    38700455.176   155830151.645          42.125    38700449.078   163753719.415          42.875  
C04  37550316.625   195534104.304         -19.367          43.688    37550313.680   151199361.197          44.813    37550307.113   158887633.882          45.375  
C07  36602158.133   190597785.119       -1046.965          45.000    36602154.566   147382012.276          48.625    36602145.363   154876456.741          49.375  
C08  36632612.133   190755612.807        -210.207          45.375    36632607.289   147503881.980          48.313    36632599.320   155004079.748          49.188  
C10  36397415.508   189531161.200        -448.766          45.000    36397413.738   146557048.427          48.000    36397404.301   154009110.303          48.375  
C11  24030715.945   125133562.824        2130.184          42.875    24030716.899    96761730.257          45.875    24030707.461   101681812.375          46.000  
C12  21575417.305   112349598.593        -162.062          47.500    21575414.824    86875533.062          52.688    21575407.027    91292933.531          53.813  
> 2012 10 14 00 00 38.0000000  0  8                     
C01  36658664.398   190891312.724         -34.316          44.875    36658657.106   147609262.084          48.000    36658651.535   155114793.864          46.688  
C03  38700458.172   201522718.386          -0.340          41.000    38700454.856   155830151.922          41.688    38700448.992   163753719.703          42.625  
C04  37550320.281   195534123.711         -19.375          43.625    37550317.395   151199376.201          44.875    37550310.832   158887649.650          45.375  
C07  36602359.336   190598832.286       -1047.285          45.313    36602355.418   147382822.013          48.688    36602346.160   154877307.650          49.188  
C08  36632652.797   190755823.084        -210.273          45.625    36632647.636   147504044.580          48.375    36632639.723   155004250.622          48.875  
C10  36397501.867   189531610.047        -448.953          45.188    36397500.160   146557395.508          48.125    36397490.785   154009475.032          48.688  
C11  24030307.422   125131432.910        2129.758          43.000    24030308.164    96760083.278          46.000    24030298.613   101680081.646          45.625  
C12  21575448.477   112349760.926        -162.469          47.313    21575446.367    86875658.590          52.688    21575438.277    91293065.441          53.375  
> 2012 10 14 00 00 39.0000000  0  8                     
C01  36658671.141   190891346.998         -34.305          43.875    36658663.906   147609288.585          47.875    36658658.574   155114821.712          46.875  
C03  38700458.492   201522718.752          -0.375          40.625    38700455.527   155830152.206          41.688    38700449.492   163753719.994          42.625  
C04  37550323.992   195534143.161         -19.524          43.000    37550320.887   151199391.246          44.500    37550314.441   158887665.455          45.375  
C07  36602560.570   190599879.629       -1047.485          44.875    36602556.269   147383631.884          48.625    36602547.359   154878158.698          49.500  
C08  36632692.961   190756033.426        -210.344          44.688    36632687.984   147504207.230          48.375    36632680.012   155004421.543          49.500  
C10  36397588.015   189532059.124        -449.203          45.125    36397586.141   146557742.764          48.313    36397576.703   154009839.948          48.813  
C11  24029898.649   125129303.255        2129.406          42.625    24029898.945    96758436.495          45.625    24029889.512   101678351.123          45.875  
C12  21575479.765   112349923.653        -162.887          47.500    21575477.414    86875784.415          52.875    21575469.324    91293197.671          53.000  
> 2012 10 14 00 00 40.0000000  0  8                     
C01  36658677.758   190891381.368         -34.191          43.875    36658670.250   147609315.162          48.000    36658664.976   155114849.640          47.188  
C03  38700458.532   201522719.216          -0.278          40.375    38700455.301   155830152.565          41.375    38700449.437   163753720.367          42.625  
C04  37550327.492   195534162.703         -19.387          42.813    37550324.949   151199406.355          44.625    37550318.386   158887681.338          45.813  
C07  36602761.344   190600927.208       -1047.477          44.313    36602757.399   147384441.938          48.688    36602748.547   154879009.939          49.625  
