     3.04           OBSERVATION DATA    M: Mixed            RINEX VERSION / TYPE
CONVBIN demo5 b34f.1                    20220527 015939 UTC PGM / RUN BY / DATE 
log: /home/igor/git/flutter_rtklib/test/data/rcvraw/javad_20COMMENT             
format: Javad GREIS                                         COMMENT             
format: Javad GREIS                                         COMMENT             
log: /home/igor/git/flutter_rtklib/test/data/rcvraw/javad_20COMMENT             
                                                            MARKER NAME         
                                                            MARKER NUMBER       
                                                            MARKER TYPE         
                                                            OBSERVER / AGENCY   
                                                            REC # / TYPE / VERS 
                                                            ANT # / TYPE        
 -2180791.1889  1968651.4328  5733703.8051                  APPROX POSITION XYZ 
        0.0000        0.0000        0.0000                  ANTENNA: DELTA H/E/N
G    8 C1C L1C C1W L1W C2W L2W C2X L2X                      SYS / # / OBS TYPES 
R    8 C1C L1C C1P L1P C2C L2C C2P L2P                      SYS / # / OBS TYPES 
J   10 C1C L1C C1X L1X C1Z L1Z C2X L2X C5X L5X              SYS / # / OBS TYPES 
S    2 C1C L1C                                              SYS / # / OBS TYPES 
  2011    01    15    02    26   43.0000000     GPS         TIME OF FIRST OBS   
  2011    01    15    02    28   52.0000000     GPS         TIME OF LAST OBS    
G L1C                                                       SYS / PHASE SHIFT   
G L1W  0.00000                                              SYS / PHASE SHIFT   
G L2W  0.00000                                              SYS / PHASE SHIFT   
G L2X  0.00000                                              SYS / PHASE SHIFT   
R L1C                                                       SYS / PHASE SHIFT   
R L1P  0.00000                                              SYS / PHASE SHIFT   
R L2C                                                       SYS / PHASE SHIFT   
R L2P  0.00000                                              SYS / PHASE SHIFT   
J L1C                                                       SYS / PHASE SHIFT   
J L1X  0.00000                                              SYS / PHASE SHIFT   
J L1Z  0.00000                                              SYS / PHASE SHIFT   
J L2X  0.00000                                              SYS / PHASE SHIFT   
J L5X  0.00000                                              SYS / PHASE SHIFT   
S L1C                                                       SYS / PHASE SHIFT   
  7 R05  1 R06 -4 R11  0 R18 -3 R19  3 R20  2 R21  4        GLONASS SLOT / FRQ #
 C1C    0.000 C1P    0.000 C2C    0.000 C2P    0.000        GLONASS COD/PHS/BIS 
                                                            END OF HEADER       
> 2011 01 15 02 26 43.0000000  0 20                     
G11  24437298.394   128418870.7411   24437298.703   128418871.0001   24437298.268   100066652.9711                                 
G02  24377590.814   128105115.2561   24377590.113   128105116.5311   24377589.975    99822169.5241                                 
R05  19214136.957   102710572.9941   19214136.726   102710572.2921   19214143.645    79886001.3971   19214143.405    79886001.6381 
R21  22163708.614   118602470.9101   22163707.798   118602478.2061   22163712.391    92246370.5251   22163712.853    92246372.7701 
R19  20981692.316   112237905.2651   20981691.860   112237905.5721   20981696.345    87296147.8701   20981697.016    87296149.1141 
G10  22356042.783   117481801.4031   22356042.285   117481804.6861   22356042.660    91544263.9911                                 
G13  22323984.884   117313341.1961   22323984.419   117313343.4501   22323984.194    91412994.9591                                 
G04  21419497.347   112560220.1691   21419496.810   112560220.4431   21419497.218    87709262.9011                                 
G32  25031761.899   131542807.8511   25031763.734   131542807.0791   25031763.401   102500888.4111                                 
G17  20045776.063   105341268.3341   20045775.694   105341268.6091   20045774.351    82084106.6331   20045774.660    82084106.3911 
G28  23538224.138   123694201.6541   23538220.993   123694200.9001   23538223.325    96385092.1931                                 
G23  21931432.886   115250466.8571   21931432.259   115250468.1381   21931429.693    89805559.1471                                 
G24  24646037.860   129515796.3701   24646037.012   129515801.6211   24646039.320   100921403.3731                                 
G12  24895753.513   130828065.9591   24895753.654   130828065.2101   24895753.382   101943948.3101   24895754.866   101943948.0791 
G20  22102556.007   116149723.6701   22102555.500   116149721.9321   22102554.268    90506277.8971                                 
R20  19287810.423   103140592.4611   19287811.037   103140591.7621   19287817.714    80220461.6261   19287818.382    80220460.8691 
R06  20707726.813   110500399.0611   20707727.260   110500398.3511   20707732.554    85944752.9081   20707732.419    85944754.1281 
S29  40072683.459   210583368.5981 
S37  40100759.514   210730910.9011 
J01  38772729.764   203752073.8001   38772729.737   203752074.5581   38772727.728   203752063.8771   38772729.353   158767850.6781   38772733.631   152152523.7311 
> 2011 01 15 02 26 44.0000000  0 20                     
G11  24437884.573   128421952.017    24437884.794   128421952.289    24437884.213   100069053.971                                  
G02  24377138.610   128102740.060    24377138.793   128102741.325    24377137.534    99820318.710                                  
R05  19214359.580   102711761.836    19214359.268   102711761.132    19214365.501    79886926.052    19214365.665    79886926.293  
R21  22163053.717   118598974.552    22163054.200   118598981.846    22163059.458    92243651.131    22163059.680    92243653.378  
R19  20982249.402   112240884.822    20982248.671   112240885.132    20982254.232    87298465.305    20982254.199    87298466.549  
G10  22355512.483   117479013.531    22355511.457   117479016.811    22355512.135    91542091.616                                  
G13  22323499.157   117310790.846    22323499.097   117310793.110    22323498.671    91411007.673                                  
G04  21419211.581   112558718.038    21419211.201   112558718.311    21419211.162    87708092.404                                  
G32  25032453.877   131546440.697    25032455.175   131546439.950    25032454.668   102503719.222                                  
G17  20045858.773   105341703.096    20045858.401   105341703.366    20045857.157    82084445.405    20045857.259    82084445.165  
G28  23538876.096   123697634.752    23538874.195   123697634.017    23538876.294    96387767.335                                  
G23  21931328.402   115249917.566    21931327.419   115249918.849    21931325.353    89805131.131                                  
G24  24646560.260   129518547.422    24646560.941   129518552.675    24646563.294   100923547.082                                  
G12  24895459.201   130826516.264    24895459.033   130826515.485    24895457.331   101942740.760    24895459.873   101942740.520  
G20  22103140.081   116152791.293    22103138.695   116152789.555    22103138.812    90508668.249                                  
R20  19287679.159   103139886.160    19287678.955   103139885.460    19287685.850    80219912.280    19287686.036    80219911.521  
R06  20707237.944   110497788.851    20707238.001   110497788.141    20707243.224    85942722.744    20707242.762    85942723.965  
S29  40072728.646   210583612.935  
S37  40100806.000   210731154.561  
J01  38772763.101   203752247.408    38772762.456   203752248.158    38772760.382   203752237.479    38772762.498   158767985.953    38772766.680   152152653.372  
> 2011 01 15 02 26 45.0000000  0 20                     
G11  24438470.316   128425033.637    24438471.305   128425033.902    24438470.352   100071455.228                                  
G02  24376686.895   128100365.127    24376686.820   128100366.400    24376685.138    99818468.132                                  
R05  19214582.469   102712951.666    19214581.789   102712950.964    19214588.036    79887851.476    19214588.099    79887851.715  
R21  22162401.246   118595478.589    22162400.679   118595485.884    22162406.522    92240932.049    22162406.330    92240934.298  
R19  20982806.234   112243865.173    20982805.886   112243865.482    20982811.309    87300783.356    20982811.264    87300784.598  
G10  22354982.093   117476226.256    22354981.391   117476229.532    22354981.559    91539919.722                                  
G13  22323014.782   117308241.114    22323014.108   117308243.384    22323013.565    91409020.870                                  
G04  21418925.900   112557216.363    21418925.319   112557216.635    21418925.037    87706922.274                                  
G32  25033143.202   131550073.779    25033145.942   131550073.018    25033146.044   102506550.142                                  
G17  20045941.800   105342138.722    20045941.255   105342138.991    20045940.028    82084784.851    20045940.334    82084784.611  
G28  23539528.885   123701068.214    23539527.551   123701067.476    23539529.695    96390442.758                                  
G23  21931223.694   115249369.146    21931223.199   115249370.427    21931220.660    89804703.789                                  
G24  24647084.217   129521298.772    24647084.732   129521304.036    24647087.227   100925690.956                                  
G12  24895164.625   130824967.344    24895163.825   130824966.579    24895162.086   101941533.798    24895164.502   101941533.567  
G20  22103724.406   116155859.412    22103722.631   116155857.673    22103722.394    90511058.995                                  
R20  19287546.983   103139180.749    19287547.184   103139180.051    19287554.274    80219363.626    19287554.193    80219362.870  
R06  20706748.150   110495179.470    20706749.085   110495178.760    20706753.837    85940693.225    20706753.969    85940694.448  
S29  40072776.601   210583857.421  
S37  40100851.598   210731398.157  
J01  38772796.036   203752421.190    38772795.790   203752421.943    38772794.009   203752411.270    38772795.490   158768121.371    38772799.729   152152783.145  
> 2011 01 15 02 26 46.0000000  0 20                     
G11  24439057.151   128428115.255    24439057.400   128428115.522    24439056.191   100073856.487                                  
G02  24376234.541   128097990.075    24376235.066   128097991.357    24376232.853    99816617.446                                  
R05  19214805.101   102714142.127    19214804.523   102714141.424    19214811.106    79888777.391    19214810.713    79888777.632  
R21  22161747.476   118591982.657    22161747.252   118591989.952    22161751.608    92238212.993    22161753.217    92238215.242  
R19  20983363.485   112246845.970    20983363.155   112246846.279    20983368.950    87303101.753    20983368.305    87303102.996  
G10  22354451.817   117473439.237    22354450.468   117473442.518    22354451.562    91537748.020                                  
G13  22322529.349   117305691.657    22322528.258   117305693.925    22322528.363    91407034.279                                  
G04  21418639.415   112555714.780    21418639.769   112555715.062    21418639.529    87705752.210                                  
G32  25033835.248   131553706.793    25033837.944   131553706.051    25033836.972   102509381.086                                  
G17  20046024.690   105342574.843    20046024.156   105342575.114    20046022.945    82085124.685    20046023.032    82085124.447  
G28  23540182.619   123704501.659    23540180.976   123704500.932    23540182.412    96393118.159                                  
G23  21931119.621   115248821.226    21931119.177   115248822.507    21931116.317    89804276.838                                  
G24  24647609.312   129524050.073    24647607.396   129524055.331    24647610.874   100927834.849                                  
G12  24894869.701   130823418.861    24894869.198   130823418.105    24894867.342   101940327.179    24894869.417   101940326.958  
G20  22104308.072   116158927.636    22104307.095   116158925.902    22104305.886    90513449.820                                  
R20  19287414.868   103138475.885    19287415.260   103138475.189    19287422.743    80218815.399    19287422.000    80218814.645  
R06  20706259.788   110492570.568    20706260.189   110492569.862    20706265.415    85938664.083    20706265.310    85938665.307  
S29  40072823.411   210584101.676  
S37  40100899.109   210731641.706  
J01  38772829.235   203752594.799    38772828.512   203752595.553    38772826.732   203752584.874    38772828.692   158768256.652    38772832.820   152152912.790  
> 2011 01 15 02 26 47.0000000  0 20                     
G11  24439643.200   128431196.524    24439643.503   128431196.770    24439642.612   100076257.468                                  
G02  24375782.793   128095614.567    24375783.596   128095615.843    24375781.411    99814766.404                                  
R05  19215028.132   102715332.852    19215027.247   102715332.150    19215033.609    79889703.509    19215033.636    79889703.751  
R21  22161094.460   118588486.370    22161093.725   118588493.665    22161099.136    92235493.654    22161099.547    92235495.905  
R19  20983920.805   112249826.844    20983920.391   112249827.155    20983924.855    87305420.212    20983925.716    87305421.454  
G10  22353921.385   117470652.104    22353920.093   117470655.381    22353920.633    91535576.224                                  
G13  22322044.168   117303142.106    22322043.374   117303144.369    22322043.092    91405047.618                                  
G04  21418353.734   112554212.965    21418353.560   112554213.240    21418353.923    87704581.967                                  
G32  25034525.338   131557339.353    25034528.677   131557338.604    25034527.898   102512211.671                                  
G17  20046107.897   105343011.105    20046107.223   105343011.378    20046106.051    82085464.632    20046106.158    82085464.393  
G28  23540836.274   123707934.743    23540834.095   123707934.004    23540836.319    96395793.278                                  
G23  21931015.215   115248273.440    21931014.654   115248274.720    21931012.382    89803849.991                                  
G24  24648132.219   129526800.898    24648130.609   129526806.148    24648134.360   100929978.357                                  
G12  24894574.106   130821870.389    24894574.523   130821869.621    24894573.168   101939120.602    24894574.580   101939120.350  
G20  22104891.792   116161995.649    22104890.785   116161993.920    22104889.456    90515840.481                                  
R20  19287283.064   103137771.177    19287283.630   103137770.481    19287291.158    80218267.296    19287290.217    80218266.536  
R06  20705770.607   110489961.776    20705771.195   110489961.070    20705776.285    85936635.024    20705776.234    85936636.247  
S29  40072868.976   210584345.474  
S37  40100945.943   210731885.085  
J01  38772862.026   203752767.879    38772861.828   203752768.626    38772859.949   203752757.950    38772861.430   158768391.519    38772865.654   152153042.038  
> 2011 01 15 02 26 48.0000000  0 20                     
G11  24440230.227   128434277.833    24440230.167   128434278.091    24440229.420   100078658.481                                  
G02  24375330.943   128093239.042    24375330.964   128093240.301    24375329.138    99812915.340                                  
R05  19215250.413   102716524.290    19215250.068   102716523.588    19215256.709    79890630.183    19215256.349    79890630.422  
R21  22160440.774   118584990.201    22160440.531   118584997.499    22160445.562    92232774.417    22160446.464    92232776.667  
R19  20984478.395   112252808.230    20984477.549   112252808.541    20984483.180    87307739.066    20984482.961    87307740.309  
G10  22353391.079   117467865.315    22353389.946   117467868.592    22353390.417    91533404.697                                  
G13  22321559.263   117300592.907    22321558.337   117300595.168    22321557.656    91403061.234                                  
G04  21418068.152   112552711.349    21418068.059   112552711.624    21418068.002    87703411.878                                  
G32  25035216.581   131560971.861    25035219.975   131560971.091    25035219.300   102515042.136                                  
G17  20046190.898   105343447.948    20046190.283   105343448.220    20046189.147    82085805.028    20046189.357    82085804.788  
G28  23541489.048   123711367.904    23541487.564   123711367.156    23541489.783    96398468.484                                  
G23  21930911.331   115247726.248    21930910.977   115247727.530    21930908.030    89803423.605                                  
G24  24648656.586   129529551.792    24648654.017   129529557.047    24648658.700   100932121.886                                  
G12  24894279.542   130820322.470    24894279.731   130820321.693    24894278.538   101937914.406    24894278.900   101937914.178  
G20  22105475.416   116165063.882    22105474.456   116165062.147    22105473.542    90518231.306                                  
R20  19287151.458   103137067.110    19287151.740   103137066.411    19287159.270    80217719.686    19287158.653    80217718.927  
R06  20705282.224   110487353.557    20705282.314   110487352.852    20705286.988    85934606.409    20705287.594    85934607.631  
S29  40072915.429   210584589.065  
S37  40100992.390   210732128.081  
J01  38772894.823   203752940.865    38772894.614   203752941.617    38772892.908   203752930.941    38772894.164   158768526.315    38772898.604   152153171.216  
> 2011 01 15 02 26 49.0000000  0 20                     
G11  24440816.651   128437359.494    24440816.261   128437359.742    24440815.619   100081059.789                                  
G02  24374879.134   128090863.719    24374878.921   128090864.992    24374876.427    99811064.430                                  
R05  19215473.704   102717716.653    19215473.198   102717715.951    19215479.406    79891557.575    19215479.634    79891557.816  
R21  22159787.125   118581494.375    22159787.230   118581501.676    22159791.921    92230055.444    22159793.312    92230057.692  
R19  20985035.751   112255790.356    20985035.145   112255790.666    20985040.092    87310058.499    20985040.593    87310059.737  
G10  22352860.770   117465079.087    22352859.730   117465082.366    22352860.165    91531233.618                                  
G13  22321073.803   117298044.265    22321073.446   117298046.535    22321072.928    91401075.281                                  
G04  21417782.630   112551210.141    21417782.159   112551210.414    21417782.477    87702242.105                                  
G32  25035908.091   131564604.568    25035910.975   131564603.787    25035910.990   102517872.852                                  
G17  20046274.015   105343885.613    20046273.596   105343885.885    20046272.402    82086146.067    20046272.456    82086145.827  
G28  23542142.857   123714801.360    23542141.265   123714800.622    23542143.180    96401143.898                                  
G23  21930807.339   115247179.876    21930806.730   115247181.159    21930804.227    89802997.863                                  
G24  24649180.279   129532302.906    24649178.486   129532308.136    24649181.157   100934265.630                                  
G12  24893985.317   130818775.225    24893985.278   130818774.463    24893983.908   101936708.763    24893985.188   101936708.534  
G20  22106059.849   116168132.544    22106058.452   116168130.805    22106057.658    90520622.467                                  
R20  19287019.690   103136363.895    19287020.329   103136363.198    19287027.764    80217172.743    19287027.308    80217171.985  
R06  20704793.895   110484746.139    20704793.838   110484745.431    20704799.124    85932578.414    20704798.644    85932579.639  
S29  40072960.335   210584832.965  
S37  40101038.648   210732371.181  
J01  38772927.783   203753113.994    38772927.435   203753114.747    38772925.807   203753104.071    38772927.225   158768661.219    38772931.590   152153300.498  
> 2011 01 15 02 26 50.0000000  0 20                     
G11  24441402.247   128440441.424    24441402.904   128440441.683    24441401.063   100083461.305                                  
G02  24374427.275   128088488.589    24374426.487   128088489.860    24374424.613    99809213.687                                  
R05  19215696.669   102718909.920    19215696.351   102718909.219    19215702.488    79892485.673    19215703.133    79892485.914  
R21  22159135.019   118577998.863    22159134.120   118578006.165    22159140.098    92227336.714    22159139.981    92227338.962  
R19  20985593.191   112258773.212    20985593.011   112258773.523    20985597.922    87312378.500    20985598.420    87312379.738  
G10  22352331.034   117462293.405    22352329.946   117462296.680    22352329.913    91529062.955                                  
G13  22320589.054   117295496.176    22320588.733   117295498.438    22320588.364    91399089.759                                  
G04  21417496.966   112549709.328    21417496.478   112549709.606    21417496.619    87701072.643                                  
G32  25036600.390   131568237.523    25036601.772   131568236.764    25036602.525   102520703.719                                  
G17  20046357.588   105344324.064    20046357.163   105344324.337    20046355.616    82086487.714    20046355.967    82086487.475  
G28  23542795.454   123718235.099    23542794.761   123718234.364    23542797.037    96403819.535                                  
G23  21930703.431   115246634.294    21930703.143   115246635.575    21930700.328    89802572.737                                  
G24  24649701.393   129535054.258    24649702.373   129535059.502    24649705.011   100936409.482                                  
G12  24893691.007   130817228.721    24893690.851   130817227.962    24893689.751   101935503.700    24893691.889   101935503.471  
G20  22106643.281   116171201.637    22106642.640   116171199.900    22106641.435    90523013.963                                  
R20  19286889.116   103135661.523    19286889.047   103135660.828    19286895.906    80216626.454    19286896.056    80216625.695  
R06  20704304.688   110482139.484    20704305.237   110482138.777    20704310.456    85930551.019    20704310.363    85930552.243  
S29  40073007.198   210585076.921  
S37  40101082.468   210732614.669  
J01  38772960.532   203753287.230    38772960.466   203753287.988    38772958.463   203753277.305    38772960.544   158768796.209    38772964.480   152153429.866  
> 2011 01 15 02 26 51.0000000  0 20                     
G11  24441989.514   128443523.286    24441988.953   128443523.534    24441987.484   100085862.734                                  
G02  24373975.185   128086113.305    24373974.867   128086114.567    24373973.230    99807362.803                                  
R05  19215919.808   102720103.748    19215919.766   102720103.047    19215926.541    79893414.208    19215926.199    79893414.445  
R21  22158480.512   118574503.336    22158480.776   118574510.636    22158486.514    92224617.970    22158486.934    92224620.221  
R19  20986150.529   112261756.439    20986150.607   112261756.750    20986155.779    87314698.783    20986156.162    87314700.023  
G10  22351800.180   117459507.901    22351799.310   117459511.180    22351800.438    91526892.434                                  
G13  22320104.598   117292948.319    22320103.582   117292950.583    22320103.375    91397104.421                                  
G04  21417211.702   112548208.567    21417210.656   112548208.841    21417210.907    87699903.222                                  
G32  25037292.164   131571870.211    25037293.501   131571869.418    25037293.969   102523534.401                                  
G17  20046441.344   105344762.964    20046440.577   105344763.238    20046439.300    82086829.716    20046439.660    82086829.476  
G28  23543450.003   123721668.779    23543448.471   123721668.048    23543449.469    96406495.120                                  
G23  21930599.466   115246089.152    21930599.097   115246090.429    21930596.276    89802147.948                                  
G24  24650227.370   129537805.477    24650225.796   129537810.710    24650228.965   100938553.316                                  
G12  24893396.009   130815682.540    24893396.680   130815681.766    24893396.629   101934298.897    24893396.695   101934298.662  
G20  22107227.745   116174270.828    22107226.534   116174269.092    22107225.892    90525405.548                                  
R20  19286757.495   103134959.638    19286757.731   103134958.944    19286764.843    80216080.543    19286764.558    80216079.787  
R06  20703816.629   110479533.239    20703816.905   110479532.533    20703822.628    85928523.937    20703821.672    85928525.166  
S29  40073054.035   210585320.878  
S37  40101128.244   210732857.880  
J01  38772993.869   203753460.240    38772993.707   203753460.994    38772991.710   203753450.321    38772993.377   158768931.021    38772997.415   152153559.061  
> 2011 01 15 02 26 52.0000000  0 20                     
G11  24442576.525   128446605.416    24442575.356   128446605.674    24442574.532   100088264.398                                  
G02  24373523.251   128083738.146    24373523.281   128083739.407    24373521.053    99805512.023                                  
R05  19216143.540   102721298.430    19216143.198   102721297.731    19216149.302    79894343.404    19216149.667    79894343.644  
R21  22157828.113   118571008.078    22157827.828   118571015.376    22157832.409    92221899.441    22157833.545    92221901.688  
R19  20986709.300   112264740.347    20986708.284   112264740.656    20986713.680    87317019.599    20986713.692    87317020.840  
G10  22351270.614   117456722.878    22351269.676   117456726.158    22351270.398    91524722.291                                  
G13  22319620.316   117290400.948    22319618.700   117290403.206    22319618.922    91395119.452                                  
G04  21416925.700   112546708.154    21416925.538   112546708.427    21416925.511    87698734.063                                  
G32  25037985.216   131575503.080    25037984.739   131575502.335    25037985.248   102526365.191                                  
G17  20046524.963   105345202.581    20046524.198   105345202.855    20046522.873    82087172.274    20046523.245    82087172.033  
G28  23544103.253   123725102.685    23544101.440   123725101.940    23544102.348    96409170.893                                  
G23  21930495.768   115245544.740    21930495.327   115245546.021    21930492.965    89801723.735                                  
G24  24650749.344   129540556.883    24650749.003   129540562.123    24650752.594   100940697.259                                  
G12  24893101.540   130814137.051    24893102.913   130814136.303    24893103.654   101933094.617    24893102.479   101933094.377  
G20  22107811.890   116177340.347    22107811.003   116177338.609    22107809.981    90527797.385                                  
R20  19286626.275   103134258.526    19286626.605   103134257.829    19286633.926    80215535.233    19286633.644    80215534.474  
R06  20703328.336   110476927.706    20703328.426   110476926.999    20703333.495    85926497.412    20703333.223    85926498.640  
S29  40073101.075   210585565.071  
S37  40101175.224   210733101.624  
J01  38773026.642   203753633.302    38773025.959   203753634.053    38773024.244   203753623.384    38773026.187   158769065.874    38773030.408   152153688.295  
> 2011 01 15 02 26 53.0000000  0 20                     
G11  24443162.215   128449687.447    24443161.540   128449687.695    24443161.708   100090665.987                                  
G02  24373070.648   128081362.822    24373070.726   128081364.093    24373069.614    99803661.136                                  
R05  19216367.185   102722493.701    19216366.837   102722493.000    19216372.737    79895273.057    19216373.438    79895273.298  
R21  22157175.363   118567512.805    22157174.526   118567520.108    22157179.482    92219180.899    22157180.504    92219183.145  
R19  20987266.753   112267724.642    20987266.153   112267724.950    20987271.174    87319340.716    20987271.462    87319341.956  
G10  22350740.692   117453938.067    22350740.314   117453941.349    22350740.596    91522552.304                                  
G13  22319135.039   117287853.775    22319134.290   117287856.034    22319134.095    91393134.641                                  
G04  21416640.555   112545207.784    21416640.085   112545208.055    21416639.740    87697564.948                                  
G32  25038676.585   131579135.812    25038676.261   131579135.023    25038676.522   102529195.907                                  
G17  20046608.557   105345642.644    20046607.897   105345642.919    20046606.716    82087515.179    20046606.938    82087514.940  
G28  23544756.195   123728536.530    23544755.452   123728535.792    23544756.234    96411846.618                                  
G23  21930392.354   115245000.780    21930391.920   115245002.064    21930389.197    89801299.869                                  
G24  24651273.157   129543308.141    24651273.025   129543313.391    24651275.561   100942841.107                                  
G12  24892809.138   130812591.926    24892808.568   130812591.159    24892808.053   101931890.603    24892808.964   101931890.382  
G20  22108395.706   116180409.974    22108394.045   116180408.238    22108394.018    90530189.302                                  
R20  19286495.884   103133557.908    19286495.602   103133557.213    19286502.353    80214990.307    19286502.545    80214989.551  
R06  20702840.142   110474322.590    20702840.211   110474321.885    20702845.424    85924471.212    20702845.394    85924472.441  
S29  40073147.924   210585809.139  
S37  40101222.747   210733345.128  
J01  38773058.990   203753806.131    38773059.176   203753806.883    38773057.263   203753796.213    38773059.020   158769200.547    38773063.268   152153817.357  
> 2011 01 15 02 26 54.0000000  0 20                     
G11  24443749.394   128452769.520    24443748.180   128452769.793    24443747.898   100093067.601                                  
G02  24372618.369   128078987.426    24372618.291   128078988.687    24372617.332    99801810.162                                  
R05  19216590.482   102723689.631    19216590.416   102723688.933    19216596.259    79896203.226    19216596.835    79896203.466  
R21  22156521.716   118564017.588    22156521.434   118564024.890    22156527.661    92216462.395    22156527.211    92216464.642  
R19  20987824.552   112270709.394    20987824.154   112270709.703    20987828.785    87321662.189    20987829.244    87321663.431  
G10  22350210.593   117451153.522    22350209.997   117451156.803    22350210.572    91520382.537                                  
G13  22318650.269   117285306.907    22318649.406   117285309.173    22318649.412    91391150.077                                  
G04  21416354.793   112543707.498    21416354.619   112543707.773    21416354.379    87696395.896                                  
G32  25039365.763   131582768.455    25039367.019   131582767.698    25039368.227   102532026.528                                  
G17  20046692.343   105346083.240    20046691.839   105346083.514    20046690.493    82087858.500    20046690.928    82087858.260  
G28  23545409.755   123731970.383    23545408.907   123731969.649    23545410.091    96414522.334                                  
G23  21930289.460   115244457.338    21930288.677   115244458.623    21930285.859    89800876.413                                  
G24  24651797.344   129546059.386    24651796.465   129546064.639    24651799.146   100944984.924                                  
G12  24892514.820   130811047.217    24892515.182   130811046.465    24892513.887   101930686.943    24892515.089   101930686.717  
G20  22108979.894   116183479.741    22108978.787   116183478.012    22108978.287    90532581.318                                  
R20  19286364.089   103132857.862    19286364.572   103132857.165    19286372.189    80214445.827    19286371.503    80214445.070  
R06  20702352.062   110471717.976    20702352.200   110471717.273    20702357.527    85922445.402    20702357.092    85922446.632  
S29  40073195.339   210586052.818  
S37  40101267.560   210733588.733  
J01  38773091.787   203753978.816    38773091.859   203753979.570    38773090.384   203753968.894    38773091.364   158769335.106    38773096.149   152153946.309  
> 2011 01 15 02 26 55.0000000  0 20                     
G11  24444336.223   128455851.516    24444334.781   128455851.756    24444334.125   100095469.156                                  
G02  24372166.246   128076611.843    24372166.028   128076613.114    24372165.728    99799959.066                                  
R05  19216814.697   102724886.119    19216814.379   102724885.418    19216820.405    79897133.825    19216821.023    79897134.069  
R21  22155868.375   118560522.340    22155868.223   118560529.640    22155874.161    92213743.870    22155873.745    92213746.117  
R19  20988382.130   112273694.502    20988382.355   112273694.811    20988387.233    87323983.938    20988387.467    87323985.179  
G10  22349681.001   117448369.160    22349679.961   117448372.441    22349680.812    91518212.896                                  
G13  22318165.316   117282760.207    22318165.043   117282762.482    22318164.389    91389165.630                                  
G04  21416069.550   112542207.274    21416068.791   112542207.552    21416068.782    87695226.883                                  
G32  25040056.766   131586400.890    25040057.939   131586400.158    25040058.841   102534857.007                                  
G17  20046776.135   105346524.248    20046775.754   105346524.523    20046774.381    82088202.142    20046774.369    82088201.903  
G28  23546063.024   123735404.145    23546062.868   123735403.418    23546063.183    96417197.996                                  
G23  21930186.076   115243914.332    21930185.273   115243915.616    21930182.569    89800453.288                                  
G24  24652319.501   129548810.466    24652320.248   129548815.678    24652323.054   100947128.639                                  
G12  24892221.071   130809502.861    24892220.522   130809502.075    24892219.941   101929483.544    24892220.312   101929483.313  
G20  22109564.282   116186549.551    22109563.434   116186547.824    22109562.618    90534973.387                                  
R20  19286234.827   103132158.281    19286233.841   103132157.584    19286241.363    80213901.712    19286240.658    80213900.953  
R06  20701863.673   110469113.751    20701864.171   110469113.043    20701868.167    85920419.895    20701868.961    85920421.123  
S29  40073240.812   210586296.865  
S37  40101314.855   210733831.787  
J01  38773124.644   203754151.240    38773125.007   203754151.989    38773123.214   203754141.317    38773124.824   158769469.462    38773128.832   152154075.067  
> 2011 01 15 02 26 56.0000000  0 20                     
G11  24444922.413   128458934.045    24444920.998   128458934.299    24444920.767   100097871.111                                  
G02  24371714.780   128074236.690    24371713.974   128074237.955    24371713.425    99798108.294                                  
R05  19217038.501   102726083.758    19217038.432   102726083.060    19217044.332    79898065.324    19217044.884    79898065.567  
R21  22155214.543   118557027.666    22155215.059   118557034.965    22155221.214    92211025.791    22155221.130    92211028.036  
R19  20988941.105   112276680.588    20988940.416   112276680.894    20988945.198    87326306.449    20988945.620    87326307.688  
G10  22349151.330   117445585.579    22349150.311   117445588.865    22349151.076    91516043.873                                  
G13  22317681.181   117280214.314    22317680.419   117280216.581    22317679.391    91387181.817                                  
G04  21415784.492   112540707.701    21415783.470   112540707.983    21415783.524    87694058.397                                  
G32  25040748.157   131590033.777    25040749.314   131590032.986    25040750.663   102537687.812                                  
G17  20046860.172   105346966.299    20046859.720   105346966.573    20046858.515    82088546.598    20046858.976    82088546.358  
G28  23546717.621   123738838.458    23546715.720   123738837.715    23546717.162    96419874.081                                  
G23  21930082.552   115243372.359    21930082.537   115243373.637    21930079.260    89800030.969                                  
G24  24652844.948   129551562.036    24652843.578   129551567.275    24652845.976   100949272.690                                  
G12  24891927.046   130807959.443    24891927.226   130807958.691    24891926.492   101928280.901    24891927.286   101928280.665  
G20  22110148.653   116189620.043    22110147.816   116189618.309    22110146.887    90537365.974                                  
R20  19286102.904   103131459.786    19286103.123   103131459.094    19286110.345    80213358.437    19286110.078    80213357.678  
R06  20701376.321   110466510.528    20701376.228   110466509.821    20701381.535    85918395.169    20701381.145    85918396.394  
S29  40073286.959   210586541.099  
S37  40101361.356   210734075.153  
J01  38773157.699   203754324.024    38773157.741   203754324.779    38773155.847   203754314.109    38773157.640   158769604.104    38773161.783   152154204.098  
> 2011 01 15 02 26 57.0000000  0 20                     
G11  24445509.539   128462016.798    24445508.556   128462017.045    24445507.641   100100273.268                                  
G02  24371262.744   128071861.687    24371262.381   128071862.958    24371261.839    99796257.663                                  
R05  19217262.902   102727282.263    19217262.476   102727281.562    19217268.949    79898997.495    19217269.233    79898997.734  
R21  22154562.450   118553533.286    22154561.985   118553540.584    22154567.594    92208307.941    22154568.478    92208310.188  
R19  20989500.080   112279667.368    20989498.641   112279667.676    20989503.390    87328629.496    20989504.212    87328630.736  
G10  22348621.222   117442802.506    22348620.830   117442805.782    22348621.582    91513875.239                                  
G13  22317197.442   117277668.930    22317196.647   117277671.198    22317195.610    91385198.403                                  
G04  21415498.787   112539208.471    21415497.872   112539208.749    21415498.421    87692890.162                                  
G32  25041438.066   131593666.762    25041440.237   131593665.999    25041442.311   102540518.691                                  
G17  20046944.453   105347409.100    20046944.198   105347409.373    20046942.882    82088891.636    20046943.083    82088891.394  
G28  23547370.886   123742272.979    23547368.923   123742272.244    23547370.278    96422550.331                                  
G23  21929979.360   115242831.134    21929979.111   115242832.417    21929976.341    89799609.236                                  
G24  24653367.582   129554313.770    24653367.423   129554318.991    24653369.312   100951416.894                                  
G12  24891633.589   130806416.707    24891633.349   130806415.942    24891633.283   101927078.762    24891634.086   101927078.528  
G20  22110732.897   116192690.928    22110731.938   116192689.197    22110731.254    90539758.871                                  
R20  19285972.083   103130762.072    19285972.683   103130761.375    19285979.815    80212815.766    19285979.707    80212815.010  
R06  20700888.544   110463908.026    20700888.559   110463907.318    20700893.997    85916371.000    20700893.512    85916372.225  
S29  40073332.668   210586785.383  
S37  40101408.376   210734318.862  
J01  38773190.395   203754496.891    38773190.866   203754497.644    38773189.382   203754486.963    38773190.530   158769738.800    38773194.730   152154333.183  
> 2011 01 15 02 26 58.0000000  0 20                     
G11  24446095.762   128465099.353    24446094.344   128465099.613    24446093.813   100102675.240                                  
G02  24370810.969   128069486.367    24370809.853   128069487.637    24370809.862    99794406.752                                  
R05  19217486.883   102728481.173    19217486.712   102728480.473    19217492.498    79899929.980    19217493.394    79899930.220  
R21  22153909.127   118550038.721    22153908.911   118550046.018    22153914.673    92205589.945    22153915.102    92205592.189  
R19  20990057.590   112282654.377    20990057.341   112282654.683    20990062.332    87330952.726    20990062.686    87330953.961  
G10  22348091.615   117440019.477    22348090.857   117440022.757    22348092.083    91511706.650                                  
G13  22316712.410   117275123.607    22316712.015   117275125.869    22316711.889    91383215.043                                  
G04  21415213.468   112537709.145    21415213.303   112537709.419    21415212.764    87691721.861                                  
G32  25042130.086   131597299.465    25042131.408   131597298.681    25042134.136   102543349.387                                  
G17  20047028.995   105347852.193    20047028.407   105347852.468    20047027.043    82089236.905    20047027.010    82089236.664  
G28  23548024.230   123745707.316    23548022.512   123745706.580    23548023.852    96425226.412                                  
G23  21929876.672   115242290.208    21929875.878   115242291.488    21929873.300    89799187.734                                  
G24  24653891.088   129557065.226    24653891.337   129557070.458    24653892.839   100953560.900                                  
G12  24891339.552   130804874.203    24891340.542   130804873.455    24891339.109   101925876.820    24891341.294   101925876.588  
G20  22111317.399   116195761.723    22111316.257   116195759.988    22111315.856    90542151.694                                  
R20  19285841.767   103130064.691    19285842.180   103130063.994    19285849.825    80212273.362    19285849.156    80212272.604  
R06  20700401.447   110461305.789    20700400.767   110461305.082    20700406.484    85914347.042    20700406.079    85914348.266  
S29  40073380.959   210587029.434  
S37  40101453.470   210734562.257  
J01  38773223.390   203754669.371    38773223.393   203754670.124    38773221.747   203754659.444    38773223.321   158769873.202    38773227.527   152154461.984  
> 2011 01 15 02 26 59.0000000  0 20                     
G11  24446681.892   128468182.151    24446681.892   128468182.399    24446680.540   100105077.436                                  
G02  24370359.445   128067111.197    24370358.234   128067112.467    24370357.646    99792555.972                                  
R05  19217711.679   102729680.958    19217711.253   102729680.259    19217716.832    79900863.147    19217717.876    79900863.386  
R21  22153256.449   118546544.441    22153256.017   118546551.739    22153262.567    92202872.174    22153262.504    92202874.419  
R19  20990616.559   112285642.063    20990615.968   112285642.370    20990620.867    87333276.481    20990620.864    87333277.717  
G10  22347562.517   117437236.948    22347561.852   117437240.226    22347562.556    91509538.445                                  
G13  22316227.688   117272578.786    22316227.628   117272581.047    22316227.586    91381232.063                                  
G04  21414928.665   112536210.151    21414927.439   112536210.424    21414927.508    87690553.810                                  
G32  25042821.923   131600932.305    25042822.583   131600931.540    25042825.512   102546180.150                                  
G17  20047113.392   105348296.038    20047112.922   105348296.311    20047111.644    82089582.757    20047111.575    82089582.516  
G28  23548678.305   123749141.897    23548676.003   123749141.172    23548677.442    96427902.728                                  
G23  21929774.023   115241750.042    21929773.367   115241751.323    21929770.699    89798766.832                                  
G24  24654413.768   129559816.845    24654414.883   129559822.046    24654416.520   100955705.003                                  
G12  24891047.108   130803332.353    24891046.685   130803331.601    24891045.594   101924675.400    24891047.395   101924675.148  
G20  22111902.082   116198832.896    22111900.787   116198831.167    22111899.761    90544544.823                                  
R20  19285712.001   103129368.094    19285711.962   103129367.397    19285719.035    80211731.564    19285718.831    80211730.805  
R06  20699913.619   110458704.266    20699913.382   110458703.559    20699918.002    85912323.635    20699918.721    85912324.858  
S29  40073427.373   210587273.510  
S37  40101499.749   210734805.691  
J01  38773256.439   203754841.923    38773256.217   203754842.678    38773254.146   203754831.994    38773256.256   158770007.658    38773260.324   152154590.839  
> 2011 01 15 02 27 00.0000000  0 20                     
G11  24447268.691   128471265.140    24447268.005   128471265.391    24447266.838   100107479.739                                  
G02  24369906.813   128064736.081    24369905.709   128064737.355    24369905.967    99790705.246                                  
R05  19217936.553   102730881.551    19217935.849   102730880.851    19217942.097    79901796.941    19217942.510    79901797.182  
R21  22152603.459   118543050.371    22152602.946   118543057.671    22152609.380    92200154.567    22152609.113    92200156.813  
R19  20991175.132   112288630.359    20991174.511   112288630.665    20991179.227    87335600.706    20991179.752    87335601.947  
G10  22347032.964   117434454.832    22347032.337   117434458.113    22347032.601    91507370.569                                  
G13  22315744.647   117270034.418    22315743.241   117270036.685    22315743.322    91379249.442                                  
G04  21414643.206   112534711.433    21414642.310   112534711.705    21414642.385    87689385.975                                  
G32  25043513.379   131604565.202    25043513.955   131604564.395    25043516.488   102549011.031                                  
G17  20047197.889   105348740.546    20047197.517   105348740.819    20047196.123    82089929.128    20047196.570    82089928.886  
G28  23549330.456   123752576.610    23549329.820   123752575.880    23549331.286    96430579.115                                  
G23  21929671.500   115241210.539    21929670.598   115241211.817    21929668.472    89798346.438                                  
G24  24654938.362   129562568.626    24654938.114   129562573.877    24654940.131   100957849.248                                  
G12  24890753.386   130801791.085    24890753.122   130801790.334    24890752.223   101923474.404    24890754.633   101923474.159  
G20  22112486.173   116201904.366    22112485.175   116201902.637    22112484.869    90546938.171                                  
R20  19285581.586   103128672.211    19285581.709   103128671.517    19285589.221    80211190.320    19285588.664    80211189.565  
R06  20699426.369   110456103.388    20699426.082   110456102.681    20699431.715    85910300.730    20699431.100    85910301.955  
S29  40073474.353   210587517.767  
S37  40101545.171   210735049.624  
J01  38773288.997   203755014.468    38773289.212   203755015.218    38773287.381   203755004.540    38773289.015   158770142.110    38773293.128   152154719.688  
> 2011 01 15 02 27 01.0000000  0 20                     
G11  24447854.827   128474348.197    24447854.593   128474348.456    24447852.786   100109882.134                                  
G02  24369455.358   128062360.974    24369453.311   128062362.239    24369453.550    99788854.516                                  
R05  19218160.636   102732082.868    19218160.537   102732082.171    19218167.085    79902731.298    19218167.223    79902731.541  
R21  22151950.511   118539556.423    22151950.127   118539563.721    22151955.748    92197437.052    22151956.309    92197439.295  
R19  20991734.338   112291619.173    20991733.049   112291619.480    20991738.055    87337925.337    20991738.451    87337926.577  
G10  22346503.962   117431673.071    22346503.318   117431676.352    22346503.998    91505202.958                                  
G13  22315260.231   117267490.362    22315259.164   117267492.626    22315259.298    91377267.058                                  
G04  21414358.661   112533212.919    21414357.060   112533213.194    21414357.291    87688218.304                                  
G32  25044204.569   131608198.062    25044205.127   131608197.249    25044208.226   102551841.801                                  
G17  20047282.730   105349185.647    20047282.199   105349185.921    20047281.006    82090275.958    20047281.327    82090275.718  
G28  23549983.958   123756011.444    23549983.578   123756010.713    23549984.570    96433255.611                                  
G23  21929569.073   115240671.629    21929567.994   115240672.912    21929565.880    89797926.512                                  
G24  24655462.385   129565320.385    24655461.608   129565325.634    24655464.792   100959993.479                                  
G12  24890459.433   130800250.357    24890459.416   130800249.606    24890459.116   101922273.834    24890459.445   101922273.599  
G20  22113070.613   116204976.065    22113069.788   116204974.335    22113069.402    90549331.697                                  
R20  19285452.234   103127976.958    19285451.521   103127976.261    19285459.402    80210649.569    19285458.761    80210648.810  
R06  20698938.541   110453503.070    20698938.802   110453502.361    20698944.978    85908278.262    20698943.730    85908279.490  
S29  40073520.518   210587761.921  
S37  40101591.018   210735293.584  
J01  38773321.878   203755186.923    38773322.142   203755187.676    38773319.986   203755177.001    38773321.749   158770276.491    38773325.928   152154848.470  
> 2011 01 15 02 27 02.0000000  0 20                     
G11  24448441.698   128477430.924    24448441.422   128477431.193    24448440.094   100112284.254                                  
G02  24369002.588   128059985.450    24369001.167   128059986.732    24369002.114    99787003.458                                  
R05  19218386.293   102733284.508    19218385.343   102733283.813    19218391.857    79903665.910    19218391.908    79903666.153  
R21  22151298.186   118536062.223    22151297.161   118536069.520    22151302.189    92194719.337    22151303.271    92194721.583  
R19  20992292.419   112294608.120    20992291.829   112294608.428    20992296.838    87340250.072    20992297.213    87340251.316  
G10  22345974.829   117428891.257    22345974.019   117428894.536    22345974.187    91503035.308                                  
G13  22314775.814   117264946.307    22314774.732   117264948.567    22314775.128    91375284.679                                  
G04  21414073.106   112531714.210    21414071.754   112531714.485    21414072.122    87687050.480                                  
G32  25044894.958   131611830.571    25044896.373   131611829.802    25044899.284   102554672.351                                  
G17  20047367.532   105349630.951    20047366.915   105349631.226    20047365.611    82090622.948    20047365.910    82090622.708  
G28  23550638.546   123759445.914    23550637.665   123759445.178    23550638.408    96435931.814                                  
G23  21929466.556   115240132.927    21929465.804   115240134.210    21929463.214    89797506.746                                  
G24  24655985.735   129568071.818    24655984.470   129568077.050    24655988.215   100962137.446                                  
G12  24890166.893   130798709.728    24890166.099   130798708.959    24890166.380   101921073.328    24890167.993   101921073.099  
G20  22113655.133   116208047.601    22113654.240   116208045.870    22113653.934    90551725.113                                  
R20  19285321.998   103127281.941    19285321.612   103127281.246    19285328.468    80210109.003    19285328.954    80210108.244  
R06  20698451.192   110450902.912    20698451.459   110450902.208    20698457.689    85906255.921    20698456.145    85906257.146  
S29  40073567.801   210588006.333  
S37  40101636.839   210735537.166  
J01  38773354.633   203755358.915    38773354.966   203755359.666    38773353.212   203755348.991    38773354.588   158770410.509    38773358.770   152154976.904  
> 2011 01 15 02 27 03.0000000  0 20                     
G11  24449028.500   128480514.118    24449028.506   128480514.363    24449026.806   100114686.758                                  
G02  24368550.797   128057610.272    24368549.535   128057611.543    24368549.274    99785152.676                                  
R05  19218610.568   102734487.227    19218610.229   102734486.528    19218616.147    79904601.356    19218616.983    79904601.595  
R21  22150644.252   118532568.513    22150644.153   118532575.807    22150650.065    92192002.009    22150650.485    92192004.253  
R19  20992850.384   112297597.959    20992850.798   112297598.264    20992855.256    87342575.500    20992855.936    87342576.742  
G10  22345445.611   117426110.155    22345444.765   117426113.432    22345445.341    91500868.219                                  
G13  22314291.913   117262402.959    22314291.413   117262405.216    22314291.032    91373302.856                                  
G04  21413788.018   112530216.057    21413786.750   112530216.329    21413786.903    87685883.086                                  
G32  25045585.809   131615463.398    25045588.351   131615462.605    25045590.869   102557503.110                                  
G17  20047452.436   105350077.202    20047451.873   105350077.474    20047450.620    82090970.674    20047450.755    82090970.434  
G28  23551292.837   123762880.850    23551290.226   123762880.117    23551292.091    96438608.392                                  
G23  21929363.604   115239595.171    21929363.781   115239596.450    21929360.708    89797087.708                                  
G24  24656509.251   129570823.612    24656508.019   129570828.852    24656511.826   100964281.702                                  
G12  24889873.189   130797169.975    24889872.194   130797169.219    24889873.117   101919873.521    24889873.933   101919873.298  
G20  22114239.638   116211119.711    22114238.631   116211117.981    22114238.205    90554118.959                                  
R20  19285191.619   103126587.922    19285191.933   103126587.225    19285200.022    80209569.209    19285199.146    80209568.451  
R06  20697964.962   110448303.689    20697964.317   110448302.980    20697970.238    85904234.300    20697969.213    85904235.524  
S29  40073614.911   210588250.727  
S37  40101684.784   210735780.476  
J01  38773387.766   203755531.172    38773387.682   203755531.927    38773385.305   203755521.242    38773386.924   158770544.734    38773391.502   152155105.536  
> 2011 01 15 02 27 04.0000000  0 20                     
G11  24449615.200   128483597.265    24449614.657   128483597.518    24449613.032   100117089.183                                  
G02  24368099.322   128055234.935    24368098.132   128055236.203    24368097.607    99783301.764                                  
R05  19218835.838   102735690.483    19218835.457   102735689.787    19218841.252    79905537.225    19218842.100    79905537.465  
R21  22149992.614   118529074.772    22149991.466   118529082.069    22149997.420    92189284.655    22149997.696    92189286.900  
R19  20993410.408   112300588.161    20993409.770   112300588.468    20993413.736    87344901.210    20993415.088    87344902.455  
G10  22344916.612   117423329.231    22344915.290   117423332.507    22344915.644    91498701.264                                  
G13  22313808.513   117259859.818    22313807.269   117259862.079    22313807.179    91371321.175                                  
G04  21413502.918   112528717.953    21413501.770   112528718.229    21413501.731    87684715.739                                  
G32  25046276.531   131619096.047    25046279.774   131619095.293    25046282.377   102560333.733                                  
G17  20047537.476   105350523.892    20047536.819   105350524.167    20047535.662    82091318.746    20047535.719    82091318.505  
G28  23551944.796   123766315.710    23551944.814   123766314.978    23551945.449    96441284.903                                  
G23  21929261.387   115239057.865    21929261.204   115239059.140    21929258.242    89796669.035                                  
G24  24657033.090   129573575.284    24657032.047   129573580.526    24657035.683   100966425.876                                  
G12  24889581.162   130795630.562    24889579.926   130795629.794    24889580.562   101918673.989    24889581.452   101918673.755  
G20  22114824.740   116214191.890    22114823.265   116214190.163    22114822.888    90556512.862                                  
R20  19285061.458   103125894.398    19285062.378   103125893.703    19285069.903    80209029.803    19285069.678    80209029.044  
R06  20697477.128   110445704.872    20697477.380   110445704.162    20697482.500    85902213.002    20697482.599    85902214.224  
S29  40073662.620   210588495.380  
S37  40101731.042   210736023.485  
J01  38773420.575   203755703.192    38773420.240   203755703.951    38773418.465   203755693.267    38773420.081   158770678.778    38773424.194   152155233.995  
> 2011 01 15 02 27 05.0000000  0 20                     
G11  24450202.160   128486680.771    24450201.393   128486681.039    24450200.445   100119491.943                                  
G02  24367646.659   128052859.863    24367646.042   128052861.145    24367645.625    99781451.070                                  
R05  19219060.817   102736894.728    19219060.739   102736894.033    19219067.463    79906473.859    19219067.272    79906474.099  
R21  22149338.674   118525581.415    22149338.311   118525588.711    22149343.944    92186567.601    22149345.164    92186569.846  
R19  20993968.526   112303579.171    20993968.934   112303579.476    20993973.596    87347227.553    20993974.165    87347228.794  
G10  22344386.999   117420548.926    22344385.964   117420552.203    22344386.846    91496534.797                                  
G13  22313324.399   117257317.305    22313323.545   117257319.563    22313323.467    91369339.998                                  
G04  21413218.206   112527220.299    21413216.350   112527220.567    21413216.764    87683548.732                                  
