     3.00           OBSERVATION DATA    M: Mixed            RINEX VERSION / TYPE
CONVBIN demo5 b34f.1                    20220527 015940 UTC PGM / RUN BY / DATE 
log: /home/igor/git/flutter_rtklib/test/data/rcvraw/javad_20COMMENT             
format: Javad GREIS                                         COMMENT             
format: Javad GREIS                                         COMMENT             
log: /home/igor/git/flutter_rtklib/test/data/rcvraw/javad_20COMMENT             
                                                            MARKER NAME         
                                                            MARKER NUMBER       
                                                            MARKER TYPE         
                                                            OBSERVER / AGENCY   
                                                            REC # / TYPE / VERS 
                                                            ANT # / TYPE        
 -2180791.1889  1968651.4328  5733703.8051                  APPROX POSITION XYZ 
        0.0000        0.0000        0.0000                  ANTENNA: DELTA H/E/N
G   15 C1C L1C D1C S1C C1W L1W S1W C2W L2W D2W S2W C2X L2X  SYS / # / OBS TYPES 
       D2X S2X                                              SYS / # / OBS TYPES 
R   15 C1C L1C D1C S1C C1P L1P S1P C2C L2C D2C S2C C2P L2P  SYS / # / OBS TYPES 
       D2P S2P                                              SYS / # / OBS TYPES 
S    4 C1C L1C D1C S1C                                      SYS / # / OBS TYPES 
  2011    01    15    02    26   43.0000000     GPS         TIME OF FIRST OBS   
  2011    01    15    02    28   52.0000000     GPS         TIME OF LAST OBS    
                                                            END OF HEADER       
> 2011 01 15 02 26 43.0000000  0 19                     
G11  24437298.394   128418870.7411      -3081.437          43.000    24437298.703   128418871.0001         27.250    24437298.268   100066652.9711      -2401.031          27.250                                                                  
G02  24377590.814   128105115.2561       2374.987          47.750    24377590.113   128105116.5311         31.500    24377589.975    99822169.5241       1850.681          31.500                                                                  
R05  19214136.957   102710572.9941      -1188.676          55.000    19214136.726   102710572.2921         54.000    19214143.645    79886001.3971       -924.528          49.250    19214143.405    79886001.6381       -924.524          48.000  
R21  22163708.614   118602470.9101       3496.175          49.750    22163707.798   118602478.2061         49.000    22163712.391    92246370.5251       2719.244          45.750    22163712.853    92246372.7701       2719.229          45.000  
R19  20981692.316   112237905.2651      -2979.461          52.750    20981691.860   112237905.5721         51.750    20981696.345    87296147.8701      -2317.357          47.750    20981697.016    87296149.1141      -2317.347          46.250  
G10  22356042.783   117481801.4031       2787.873          47.750    22356042.285   117481804.6861         37.250    22356042.660    91544263.9911       2172.379          37.250                                                                  
G13  22323984.884   117313341.1961       2550.379          46.250    22323984.419   117313343.4501         35.500    22323984.194    91412994.9591       1987.258          35.500                                                                  
G04  21419497.347   112560220.1691       1502.069          49.500    21419496.810   112560220.4431         40.500    21419497.218    87709262.9011       1170.449          40.500                                                                  
G32  25031761.899   131542807.8511      -3633.218          39.250    25031763.734   131542807.0791         21.750    25031763.401   102500888.4111      -2831.160          21.750                                                                  
G17  20045776.063   105341268.3341       -434.645          52.500    20045775.694   105341268.6091         48.000    20045774.351    82084106.6331       -338.694          48.000    20045774.660    82084106.3911       -338.686          53.000  
G28  23538224.138   123694201.6541      -3433.160          43.500    23538220.993   123694200.9001         31.750    23538223.325    96385092.1931      -2675.209          31.750                                                                  
G23  21931432.886   115250466.8571        549.358          49.500    21931432.259   115250468.1381         39.250    21931429.693    89805559.1471        428.067          39.250                                                                  
G24  24646037.860   129515796.3701      -2751.198          40.000    24646037.012   129515801.6211         21.750    24646039.320   100921403.3731      -2143.764          21.750                                                                  
G12  24895753.513   130828065.9591       1549.712          42.750    24895753.654   130828065.2101         28.000    24895753.382   101943948.3101       1207.557          28.000    24895754.866   101943948.0791       1207.527          41.500  
G20  22102556.007   116149723.6701      -3067.660          49.250    22102555.500   116149721.9321         38.000    22102554.268    90506277.8971      -2390.419          38.000                                                                  
R20  19287810.423   103140592.4611        706.447          52.000    19287811.037   103140591.7621         51.000    19287817.714    80220461.6261        549.458          48.750    19287818.382    80220460.8691        549.461          48.500  
R06  20707726.813   110500399.0611       2610.317          53.250    20707727.260   110500398.3511         52.250    20707732.554    85944752.9081       2030.250          48.750    20707732.419    85944754.1281       2030.253          46.500  
S29  40072683.459   210583368.5981       -244.636          42.000  
S37  40100759.514   210730910.9011       -244.017          41.500  
> 2011 01 15 02 26 44.0000000  0 19                     
G11  24437884.573   128421952.017       -3081.445          42.750    24437884.794   128421952.289          27.250    24437884.213   100069053.971       -2401.042          27.250                                                                  
G02  24377138.610   128102740.060        2375.164          47.750    24377138.793   128102741.325          31.250    24377137.534    99820318.710        1850.851          31.250                                                                  
R05  19214359.580   102711761.836       -1189.278          55.000    19214359.268   102711761.132          54.000    19214365.501    79886926.052        -924.991          49.500    19214365.665    79886926.293        -924.997          48.000  
R21  22163053.717   118598974.552        3496.241          49.500    22163054.200   118598981.846          49.000    22163059.458    92243651.131        2719.324          45.750    22163059.680    92243653.378        2719.322          44.750  
R19  20982249.402   112240884.822       -2979.901          52.750    20982248.671   112240885.132          51.750    20982254.232    87298465.305       -2317.718          48.000    20982254.199    87298466.549       -2317.712          46.500  
G10  22355512.483   117479013.531        2787.618          48.000    22355511.457   117479016.811          36.750    22355512.135    91542091.616        2172.199          36.750                                                                  
G13  22323499.157   117310790.846        2550.117          46.250    22323499.097   117310793.110          35.750    22323498.671    91411007.673        1987.086          35.750                                                                  
G04  21419211.581   112558718.038        1501.975          49.500    21419211.201   112558718.311          40.250    21419211.162    87708092.404        1170.403          40.250                                                                  
G32  25032453.877   131546440.697       -3633.023          39.750    25032455.175   131546439.950          21.750    25032454.668   102503719.222       -2830.953          21.750                                                                  
G17  20045858.773   105341703.096        -435.096          52.500    20045858.401   105341703.366          47.750    20045857.157    82084445.405        -339.057          47.750    20045857.259    82084445.165        -339.049          53.000  
G28  23538876.096   123697634.752       -3433.183          43.750    23538874.195   123697634.017          32.000    23538876.294    96387767.335       -2675.187          32.000                                                                  
G23  21931328.402   115249917.566         548.950          49.750    21931327.419   115249918.849          39.500    21931325.353    89805131.131         427.727          39.500                                                                  
G24  24646560.260   129518547.422       -2751.109          39.250    24646560.941   129518552.675          22.000    24646563.294   100923547.082       -2143.734          22.000                                                                  
G12  24895459.201   130826516.264        1549.403          43.000    24895459.033   130826515.485          28.000    24895457.331   101942740.760        1207.263          28.000    24895459.873   101942740.520        1207.313          41.000  
G20  22103140.081   116152791.293       -3067.786          49.000    22103138.695   116152789.555          37.500    22103138.812    90508668.249       -2390.477          37.500                                                                  
R20  19287679.159   103139886.160         705.926          52.000    19287678.955   103139885.460          50.750    19287685.850    80219912.280         549.054          48.750    19287686.036    80219911.521         549.077          48.250  
R06  20707237.944   110497788.851        2609.854          53.500    20707238.001   110497788.141          52.250    20707243.224    85942722.744        2029.884          48.750    20707242.762    85942723.965        2029.901          46.500  
S29  40072728.646   210583612.935        -244.396          41.750  
S37  40100806.000   210731154.561        -243.758          41.500  
> 2011 01 15 02 26 45.0000000  0 19                     
G11  24438470.316   128425033.637       -3081.775          42.500    24438471.305   128425033.902          27.250    24438470.352   100071455.228       -2401.410          27.250                                                                  
G02  24376686.895   128100365.127        2374.851          47.500    24376686.820   128100366.400          30.750    24376685.138    99818468.132        1850.496          30.750                                                                  
R05  19214582.469   102712951.666       -1190.251          54.750    19214581.789   102712950.964          54.000    19214588.036    79887851.476        -925.758          49.750    19214588.099    79887851.715        -925.741          48.000  
R21  22162401.246   118595478.589        3495.868          49.500    22162400.679   118595485.884          49.000    22162406.522    92240932.049        2719.015          46.000    22162406.330    92240934.298        2719.005          45.000  
R19  20982806.234   112243865.173       -2980.699          52.750    20982805.886   112243865.482          51.750    20982811.309    87300783.356       -2318.326          48.000    20982811.264    87300784.598       -2318.314          46.250  
G10  22354982.093   117476226.256        2787.060          47.750    22354981.391   117476229.532          36.750    22354981.559    91539919.722        2171.745          36.750                                                                  
G13  22323014.782   117308241.114        2549.598          46.500    22323014.108   117308243.384          35.750    22323013.565    91409020.870        1986.700          35.750                                                                  
G04  21418925.900   112557216.363        1501.490          49.500    21418925.319   112557216.635          40.500    21418925.037    87706922.274        1169.995          40.500                                                                  
G32  25033143.202   131550073.779       -3633.002          39.000    25033145.942   131550073.018          22.250    25033146.044   102506550.142       -2830.741          22.250                                                                  
G17  20045941.800   105342138.722        -435.972          52.750    20045941.255   105342138.991          47.750    20045940.028    82084784.851        -339.714          47.750    20045940.334    82084784.611        -339.706          53.000  
G28  23539528.885   123701068.214       -3433.601          43.500    23539527.551   123701067.476          31.500    23539529.695    96390442.758       -2675.521          31.500                                                                  
G23  21931223.694   115249369.146         548.076          49.750    21931223.199   115249370.427          39.250    21931220.660    89804703.789         427.052          39.250                                                                  
G24  24647084.217   129521298.772       -2751.387          39.500    24647084.732   129521304.036          21.750    24647087.227   100925690.956       -2143.856          21.750                                                                  
G12  24895164.625   130824967.344        1548.665          43.250    24895163.825   130824966.579          28.250    24895162.086   101941533.798        1206.749          28.250    24895164.502   101941533.567        1206.759          41.000  
G20  22103724.406   116155859.412       -3068.371          49.000    22103722.631   116155857.673          37.500    22103722.394    90511058.995       -2390.985          37.500                                                                  
R20  19287546.983   103139180.749         705.090          52.000    19287547.184   103139180.051          51.000    19287554.274    80219363.626         548.412          48.750    19287554.193    80219362.870         548.409          48.500  
R06  20706748.150   110495179.470        2609.048          53.500    20706749.085   110495178.760          52.500    20706753.837    85940693.225        2029.257          48.500    20706753.969    85940694.448        2029.259          46.250  
S29  40072776.601   210583857.421        -243.810          42.000  
S37  40100851.598   210731398.157        -243.277          41.750  
> 2011 01 15 02 26 46.0000000  0 19                     
G11  24439057.151   128428115.255       -3081.481          42.750    24439057.400   128428115.522          27.000    24439056.191   100073856.487       -2401.188          27.000                                                                  
G02  24376234.541   128097990.075        2375.293          47.750    24376235.066   128097991.357          31.500    24376232.853    99816617.446        1850.834          31.500                                                                  
R05  19214805.101   102714142.127       -1190.562          54.750    19214804.523   102714141.424          54.000    19214811.106    79888777.391        -926.001          49.500    19214810.713    79888777.632        -925.982          47.750  
R21  22161747.476   118591982.657        3496.121          49.750    22161747.252   118591989.952          49.250    22161751.608    92238212.993        2719.196          46.250    22161753.217    92238215.242        2719.201          44.750  
R19  20983363.485   112246845.970       -2980.812          52.750    20983363.155   112246846.279          51.750    20983368.950    87303101.753       -2318.400          48.000    20983368.305    87303102.996       -2318.410          46.500  
G10  22354451.817   117473439.237        2787.105          48.000    22354450.468   117473442.518          37.000    22354451.562    91537748.020        2171.739          37.000                                                                  
G13  22322529.349   117305691.657        2549.591          46.000    22322528.258   117305693.925          36.000    22322528.363    91407034.279        1986.697          36.000                                                                  
G04  21418639.415   112555714.780        1501.734          49.750    21418639.769   112555715.062          40.250    21418639.529    87705752.210        1170.185          40.250                                                                  
G32  25033835.248   131553706.793       -3632.604          39.250    25033837.944   131553706.051          22.250    25033836.972   102509381.086       -2830.437          22.250                                                                  
G17  20046024.690   105342574.843        -436.177          52.500    20046024.156   105342575.114          47.750    20046022.945    82085124.685        -339.880          47.750    20046023.032    82085124.447        -339.876          53.000  
G28  23540182.619   123704501.659       -3433.315          43.500    23540180.976   123704500.932          31.000    23540182.412    96393118.159       -2675.278          31.000                                                                  
G23  21931119.621   115248821.226         547.835          50.250    21931119.177   115248822.507          39.250    21931116.317    89804276.838         426.886          39.250                                                                  
G24  24647609.312   129524050.073       -2751.249          39.750    24647607.396   129524055.331          21.750    24647610.874   100927834.849       -2143.728          21.750                                                                  
G12  24894869.701   130823418.861        1548.241          43.250    24894869.198   130823418.105          28.250    24894867.342   101940327.179        1206.469          28.250    24894869.417   101940326.958        1206.427          41.750  
G20  22104308.072   116158927.636       -3068.079          49.250    22104307.095   116158925.902          37.500    22104305.886    90513449.820       -2390.738          37.500                                                                  
R20  19287414.868   103138475.885         704.777          52.000    19287415.260   103138475.189          50.750    19287422.743    80218815.399         548.162          48.750    19287422.000    80218814.645         548.158          48.500  
R06  20706259.788   110492570.568        2608.865          53.500    20706260.189   110492569.862          52.250    20706265.415    85938664.083        2029.117          48.750    20706265.310    85938665.307        2029.105          46.500  
S29  40072823.411   210584101.676        -244.473          42.000  
S37  40100899.109   210731641.706        -243.741          41.750  
> 2011 01 15 02 26 47.0000000  0 19                     
G11  24439643.200   128431196.524       -3081.479          42.250    24439643.503   128431196.770          27.000    24439642.612   100076257.468       -2401.004          27.000                                                                  
G02  24375782.793   128095614.567        2375.503          47.750    24375783.596   128095615.843          31.500    24375781.411    99814766.404        1850.992          31.500                                                                  
R05  19215028.132   102715332.852       -1191.091          54.750    19215027.247   102715332.150          54.000    19215033.609    79889703.509        -926.398          49.250    19215033.636    79889703.751        -926.412          47.750  
R21  22161094.460   118588486.370        3496.268          49.750    22161093.725   118588493.665          48.750    22161099.136    92235493.654        2719.323          46.250    22161099.547    92235495.905        2719.310          44.750  
R19  20983920.805   112249826.844       -2981.164          52.750    20983920.391   112249827.155          51.750    20983924.855    87305420.212       -2318.683          48.000    20983925.716    87305421.454       -2318.680          46.250  
G10  22353921.385   117470652.104        2787.002          48.250    22353920.093   117470655.381          36.750    22353920.633    91535576.224        2171.727          36.750                                                                  
G13  22322044.168   117303142.106        2549.394          46.250    22322043.374   117303144.369          35.750    22322043.092    91405047.618        1986.549          35.750                                                                  
G04  21418353.734   112554212.965        1501.738          49.750    21418353.560   112554213.240          40.500    21418353.923    87704581.967        1170.191          40.500                                                                  
G32  25034525.338   131557339.353       -3632.618          39.250    25034528.677   131557338.604          21.500    25034527.898   102512211.671       -2830.631          21.500                                                                  
G17  20046107.897   105343011.105        -436.605          52.750    20046107.223   105343011.378          47.750    20046106.051    82085464.632        -340.215          47.750    20046106.158    82085464.393        -340.217          52.750  
G28  23540836.274   123707934.743       -3433.192          43.250    23540834.095   123707934.004          31.750    23540836.319    96395793.278       -2675.135          31.750                                                                  
G23  21931015.215   115248273.440         547.460          50.250    21931014.654   115248274.720          38.250    21931012.382    89803849.991         426.602          38.250                                                                  
G24  24648132.219   129526800.898       -2750.852          40.000    24648130.609   129526806.148          22.250    24648134.360   100929978.357       -2143.803          22.250                                                                  
G12  24894574.106   130821870.389        1548.280          43.000    24894574.523   130821869.621          28.250    24894573.168   101939120.602        1206.441          28.250    24894574.580   101939120.350        1206.464          41.250  
G20  22104891.792   116161995.649       -3068.141          49.000    22104890.785   116161993.920          37.250    22104889.456    90515840.481       -2390.808          37.250                                                                  
R20  19287283.064   103137771.177         704.418          52.000    19287283.630   103137770.481          50.750    19287291.158    80218267.296         547.864          48.750    19287290.217    80218266.536         547.875          48.250  
R06  20705770.607   110489961.776        2608.519          53.000    20705771.195   110489961.070          52.500    20705776.285    85936635.024        2028.845          48.750    20705776.234    85936636.247        2028.843          46.250  
S29  40072868.976   210584345.474        -243.760          42.000  
S37  40100945.943   210731885.085        -243.427          41.250  
> 2011 01 15 02 26 48.0000000  0 19                     
G11  24440230.227   128434277.833       -3081.285          42.250    24440230.167   128434278.091          26.500    24440229.420   100078658.481       -2400.842          26.500                                                                  
G02  24375330.943   128093239.042        2375.472          47.750    24375330.964   128093240.301          31.250    24375329.138    99812915.340        1851.005          31.250                                                                  
R05  19215250.413   102716524.290       -1191.842          54.750    19215250.068   102716523.588          54.000    19215256.709    79890630.183        -926.990          49.500    19215256.349    79890630.422        -926.977          47.750  
R21  22160440.774   118584990.201        3496.075          49.750    22160440.531   118584997.499          49.000    22160445.562    92232774.417        2719.171          46.250    22160446.464    92232776.667        2719.170          44.750  
R19  20984478.395   112252808.230       -2981.691          52.750    20984477.549   112252808.541          51.500    20984483.180    87307739.066       -2319.102          47.750    20984482.961    87307740.309       -2319.101          46.250  
G10  22353391.079   117467865.315        2786.610          48.250    22353389.946   117467868.592          37.000    22353390.417    91533404.697        2171.448          37.000                                                                  
G13  22321559.263   117300592.907        2548.923          46.000    22321558.337   117300595.168          35.750    22321557.656    91403061.234        1986.154          35.750                                                                  
G04  21418068.152   112552711.349        1501.412          49.750    21418068.059   112552711.624          40.750    21418068.002    87703411.878        1169.948          40.750                                                                  
G32  25035216.581   131560971.861       -3632.511          39.500    25035219.975   131560971.091          21.500    25035219.300   102515042.136       -2830.398          21.500                                                                  
G17  20046190.898   105343447.948        -437.140          52.750    20046190.283   105343448.220          47.750    20046189.147    82085805.028        -340.616          47.750    20046189.357    82085804.788        -340.620          53.000  
G28  23541489.048   123711367.904       -3433.329          43.500    23541487.564   123711367.156          31.750    23541489.783    96398468.484       -2675.335          31.750                                                                  
G23  21930911.331   115247726.248         546.877          50.000    21930910.977   115247727.530          38.500    21930908.030    89803423.605         426.144          38.500                                                                  
G24  24648656.586   129529551.792       -2751.038          40.000    24648654.017   129529557.047          22.250    24648658.700   100932121.886       -2143.748          22.250                                                                  
G12  24894279.542   130820322.470        1547.579          43.000    24894279.731   130820321.693          28.250    24894278.538   101937914.406        1205.891          28.250    24894278.900   101937914.178        1205.938          41.000  
G20  22105475.416   116165063.882       -3068.447          48.750    22105474.456   116165062.147          37.250    22105473.542    90518231.306       -2390.988          37.250                                                                  
R20  19287151.458   103137067.110         703.723          52.000    19287151.740   103137066.411          50.750    19287159.270    80217719.686         547.345          48.750    19287158.653    80217718.927         547.351          48.250  
R06  20705282.224   110487353.557        2607.903          53.250    20705282.314   110487352.852          52.250    20705286.988    85934606.409        2028.371          48.500    20705287.594    85934607.631        2028.387          46.250  
S29  40072915.429   210584589.065        -243.537          42.250  
S37  40100992.390   210732128.081        -242.828          41.500  
> 2011 01 15 02 26 49.0000000  0 19                     
G11  24440816.651   128437359.494       -3081.999          42.500    24440816.261   128437359.742          27.250    24440815.619   100081059.789       -2401.492          27.250                                                                  
G02  24374879.134   128090863.719        2375.021          48.000    24374878.921   128090864.992          31.250    24374876.427    99811064.430        1850.665          31.250                                                                  
R05  19215473.704   102717716.653       -1193.053          54.500    19215473.198   102717715.951          53.750    19215479.406    79891557.575        -927.924          49.250    19215479.634    79891557.816        -927.928          48.000  
R21  22159787.125   118581494.375        3495.410          49.750    22159787.230   118581501.676          49.000    22159791.921    92230055.444        2718.644          46.500    22159793.312    92230057.692        2718.654          44.750  
R19  20985035.751   112255790.356       -2982.700          52.750    20985035.145   112255790.666          51.500    20985040.092    87310058.499       -2319.876          47.750    20985040.593    87310059.737       -2319.866          46.500  
G10  22352860.770   117465079.087        2785.732          48.250    22352859.730   117465082.366          37.000    22352860.165    91531233.618        2170.679          37.000                                                                  
G13  22321073.803   117298044.265        2548.157          46.500    22321073.446   117298046.535          36.000    22321072.928    91401075.281        1985.566          36.000                                                                  
G04  21417782.630   112551210.141        1500.836          49.500    21417782.159   112551210.414          40.250    21417782.477    87702242.105        1169.478          40.250                                                                  
G32  25035908.091   131564604.568       -3632.767          39.750    25035910.975   131564603.787          21.500    25035910.990   102517872.852       -2830.617          21.500                                                                  
G17  20046274.015   105343885.613        -438.269          52.750    20046273.596   105343885.885          47.750    20046272.402    82086146.067        -341.510          47.750    20046272.456    82086145.827        -341.511          52.750  
G28  23542142.857   123714801.360       -3433.870          43.000    23542141.265   123714800.622          31.500    23542143.180    96401143.898       -2675.749          31.500                                                                  
G23  21930807.339   115247179.876         545.743          49.750    21930806.730   115247181.159          39.000    21930804.227    89802997.863         425.241          39.000                                                                  
G24  24649180.279   129532302.906       -2751.479          40.500    24649178.486   129532308.136          22.250    24649181.157   100934265.630       -2144.128          22.250                                                                  
G12  24893985.317   130818775.225        1546.743          43.250    24893985.278   130818774.463          28.500    24893983.908   101936708.763        1205.308          28.500    24893985.188   101936708.534        1205.319          41.750  
G20  22106059.849   116168132.544       -3069.065          49.000    22106058.452   116168130.805          37.250    22106057.658    90520622.467       -2391.475          37.250                                                                  
R20  19287019.690   103136363.895         702.561          52.000    19287020.329   103136363.198          50.750    19287027.764    80217172.743         546.444          49.000    19287027.308    80217171.985         546.439          48.250  
R06  20704793.895   110484746.139        2606.801          53.250    20704793.838   110484745.431          52.250    20704799.124    85932578.414        2027.511          48.750    20704798.644    85932579.639        2027.520          46.500  
S29  40072960.335   210584832.965        -243.683          42.250  
S37  40101038.648   210732371.181        -243.652          41.500  
> 2011 01 15 02 26 50.0000000  0 19                     
G11  24441402.247   128440441.424       -3081.820          42.000    24441402.904   128440441.683          27.250    24441401.063   100083461.305       -2401.553          27.250                                                                  
G02  24374427.275   128088488.589        2375.301          48.000    24374426.487   128088489.860          32.000    24374424.613    99809213.687        1850.838          32.000                                                                  
R05  19215696.669   102718909.920       -1193.482          54.750    19215696.351   102718909.219          53.750    19215702.488    79892485.673        -928.269          49.500    19215703.133    79892485.914        -928.272          47.750  
R21  22159135.019   118577998.863        3495.604          49.750    22159134.120   118578006.165          48.750    22159140.098    92227336.714        2718.797          46.750    22159139.981    92227338.962        2718.802          44.750  
R19  20985593.191   112258773.212       -2982.996          52.750    20985593.011   112258773.523          51.500    20985597.922    87312378.500       -2320.124          48.000    20985598.420    87312379.738       -2320.113          46.500  
G10  22352331.034   117462293.405        2785.613          48.000    22352329.946   117462296.680          36.750    22352329.913    91529062.955        2170.617          36.750                                                                  
G13  22320589.054   117295496.176        2548.177          45.750    22320588.733   117295498.438          35.250    22320588.364    91399089.759        1985.600          35.250                                                                  
G04  21417496.966   112549709.328        1500.885          49.250    21417496.478   112549709.606          40.500    21417496.619    87701072.643        1169.528          40.500                                                                  
G32  25036600.390   131568237.523       -3632.958          39.250    25036601.772   131568236.764          21.500    25036602.525   102520703.719       -2830.706          21.500                                                                  
G17  20046357.588   105344324.064        -438.604          52.750    20046357.163   105344324.337          47.750    20046355.616    82086487.714        -341.767          47.750    20046355.967    82086487.475        -341.771          52.750  
G28  23542795.454   123718235.099       -3433.661          43.500    23542794.761   123718234.364          32.000    23542797.037    96403819.535       -2675.618          32.000                                                                  
G23  21930703.431   115246634.294         545.389          49.750    21930703.143   115246635.575          39.000    21930700.328    89802572.737         424.963          39.000                                                                  
G24  24649701.393   129535054.258       -2751.262          40.250    24649702.373   129535059.502          22.500    24649705.011   100936409.482       -2143.689          22.500                                                                  
G12  24893691.007   130817228.721        1546.257          42.500    24893690.851   130817227.962          28.750    24893689.751   101935503.700        1204.880          28.750    24893691.889   101935503.471        1204.889          42.000  
G20  22106643.281   116171201.637       -3068.970          48.750    22106642.640   116171199.900          37.250    22106641.435    90523013.963       -2391.345          37.250                                                                  
R20  19286889.116   103135661.523         702.209          52.250    19286889.047   103135660.828          51.000    19286895.906    80216626.454         546.168          49.000    19286896.056    80216625.695         546.162          48.250  
R06  20704304.688   110482139.484        2606.477          53.250    20704305.237   110482138.777          52.250    20704310.456    85930551.019        2027.262          48.750    20704310.363    85930552.243        2027.274          46.750  
S29  40073007.198   210585076.921        -243.967          42.000  
S37  40101082.468   210732614.669        -243.497          41.250  
> 2011 01 15 02 26 51.0000000  0 19                     
G11  24441989.514   128443523.286       -3081.872          42.250    24441988.953   128443523.534          27.250    24441987.484   100085862.734       -2401.488          27.250                                                                  
G02  24373975.185   128086113.305        2375.192          48.250    24373974.867   128086114.567          31.750    24373973.230    99807362.803        1850.769          31.750                                                                  
R05  19215919.808   102720103.748       -1194.323          54.750    19215919.766   102720103.047          53.750    19215926.541    79893414.208        -928.933          49.250    19215926.199    79893414.445        -928.923          47.750  
R21  22158480.512   118574503.336        3495.315          49.500    22158480.776   118574510.636          49.000    22158486.514    92224617.970        2718.593          46.750    22158486.934    92224620.221        2718.561          44.750  
R19  20986150.529   112261756.439       -2983.612          52.750    20986150.607   112261756.750          51.500    20986155.779    87314698.783       -2320.589          48.000    20986156.162    87314700.023       -2320.589          46.500  
G10  22351800.180   117459507.901        2785.227          47.750    22351799.310   117459511.180          37.000    22351800.438    91526892.434        2170.299          37.000                                                                  
G13  22320104.598   117292948.319        2547.561          46.250    22320103.582   117292950.583          35.750    22320103.375    91397104.421        1985.090          35.750                                                                  
G04  21417211.702   112548208.567        1500.579          49.500    21417210.656   112548208.841          40.000    21417210.907    87699903.222        1169.261          40.000                                                                  
G32  25037292.164   131571870.211       -3632.630          39.500    25037293.501   131571869.418          21.500    25037293.969   102523534.401       -2830.670          21.500                                                                  
G17  20046441.344   105344762.964        -439.323          52.750    20046440.577   105344763.238          48.000    20046439.300    82086829.716        -342.340          48.000    20046439.660    82086829.476        -342.341          52.750  
G28  23543450.003   123721668.779       -3433.867          43.250    23543448.471   123721668.048          31.500    23543449.469    96406495.120       -2675.730          31.500                                                                  
G23  21930599.466   115246089.152         544.714          50.000    21930599.097   115246090.429          39.000    21930596.276    89802147.948         424.494          39.000                                                                  
G24  24650227.370   129537805.477       -2751.342          40.500    24650225.796   129537810.710          22.500    24650228.965   100938553.316       -2143.907          22.500                                                                  
G12  24893396.009   130815682.540        1545.853          43.250    24893396.680   130815681.766          28.500    24893396.629   101934298.897        1204.508          28.500    24893396.695   101934298.662        1204.536          41.750  
G20  22107227.745   116174270.828       -3069.455          48.750    22107226.534   116174269.092          37.500    22107225.892    90525405.548       -2391.751          37.500                                                                  
R20  19286757.495   103134959.638         701.432          52.250    19286757.731   103134958.944          51.000    19286764.843    80216080.543         545.556          48.750    19286764.558    80216079.787         545.563          48.250  
R06  20703816.629   110479533.239        2605.868          53.250    20703816.905   110479532.533          52.500    20703822.628    85928523.937        2026.782          48.750    20703821.672    85928525.166        2026.786          46.250  
S29  40073054.035   210585320.878        -244.096          42.250  
S37  40101128.244   210732857.880        -243.490          41.500  
> 2011 01 15 02 26 52.0000000  0 19                     
G11  24442576.525   128446605.416       -3082.423          42.000    24442575.356   128446605.674          27.000    24442574.532   100088264.398       -2401.979          27.000                                                                  
G02  24373523.251   128083738.146        2374.936          48.250    24373523.281   128083739.407          31.250    24373521.053    99805512.023        1850.650          31.250                                                                  
R05  19216143.540   102721298.430       -1195.253          54.750    19216143.198   102721297.731          53.750    19216149.302    79894343.404        -929.646          49.500    19216149.667    79894343.644        -929.642          48.000  
R21  22157828.113   118571008.078        3494.960          49.500    22157827.828   118571015.376          48.750    22157832.409    92221899.441        2718.314          46.750    22157833.545    92221901.688        2718.294          45.000  
R19  20986709.300   112264740.347       -2984.388          52.500    20986708.284   112264740.656          51.500    20986713.680    87317019.599       -2321.181          48.000    20986713.692    87317020.840       -2321.187          46.750  
G10  22351270.614   117456722.878        2784.695          47.750    22351269.676   117456726.158          36.750    22351270.398    91524722.291        2169.865          36.750                                                                  
G13  22319620.316   117290400.948        2546.919          46.500    22319618.700   117290403.206          35.250    22319618.922    91395119.452        1984.659          35.250                                                                  
G04  21416925.700   112546708.154        1500.200          49.250    21416925.538   112546708.427          40.000    21416925.511    87698734.063        1168.990          40.000                                                                  
G32  25037985.216   131575503.080       -3632.855          39.000    25037984.739   131575502.335          21.500    25037985.248   102526365.191       -2830.716          21.500                                                                  
G17  20046524.963   105345202.581        -440.106          52.750    20046524.198   105345202.855          47.750    20046522.873    82087172.274        -342.948          47.750    20046523.245    82087172.033        -342.942          52.750  
G28  23544103.253   123725102.685       -3434.187          43.250    23544101.440   123725101.940          32.000    23544102.348    96409170.893       -2675.992          32.000                                                                  
G23  21930495.768   115245544.740         543.875          50.250    21930495.327   115245546.021          39.000    21930492.965    89801723.735         423.784          39.000                                                                  
G24  24650749.344   129540556.883       -2751.711          40.250    24650749.003   129540562.123          22.500    24650752.594   100940697.259       -2144.062          22.500                                                                  
G12  24893101.540   130814137.051        1544.971          43.250    24893102.913   130814136.303          28.250    24893103.654   101933094.617        1203.793          28.250    24893102.479   101933094.377        1203.877          42.000  
G20  22107811.890   116177340.347       -3069.766          48.500    22107811.003   116177338.609          37.250    22107809.981    90527797.385       -2392.054          37.250                                                                  
R20  19286626.275   103134258.526         700.600          52.250    19286626.605   103134257.829          50.750    19286633.926    80215535.233         544.925          48.750    19286633.644    80215534.474         544.923          48.250  
R06  20703328.336   110476927.706        2605.041          53.000    20703328.426   110476926.999          52.500    20703333.495    85926497.412        2026.143          48.750    20703333.223    85926498.640        2026.154          46.750  
S29  40073101.075   210585565.071        -244.358          42.000  
S37  40101175.224   210733101.624        -244.237          41.250  
> 2011 01 15 02 26 53.0000000  0 19                     
G11  24443162.215   128449687.447       -3081.669          42.000    24443161.540   128449687.695          26.750    24443161.708   100090665.987       -2401.378          26.750                                                                  
G02  24373070.648   128081362.822        2375.643          48.000    24373070.726   128081364.093          32.000    24373069.614    99803661.136        1851.100          32.000                                                                  
R05  19216367.185   102722493.701       -1195.302          54.750    19216366.837   102722493.000          53.750    19216372.737    79895273.057        -929.673          49.500    19216373.438    79895273.298        -929.679          47.750  
R21  22157175.363   118567512.805        3495.490          49.250    22157174.526   118567520.108          49.000    22157179.482    92219180.899        2718.695          46.500    22157180.504    92219183.145        2718.705          45.000  
R19  20987266.753   112267724.642       -2984.241          52.500    20987266.153   112267724.950          51.750    20987271.174    87319340.716       -2321.072          48.250    20987271.462    87319341.956       -2321.076          46.500  
G10  22350740.692   117453938.067        2784.957          48.000    22350740.314   117453941.349          36.750    22350740.596    91522552.304        2170.077          36.750                                                                  
G13  22319135.039   117287853.775        2547.298          46.500    22319134.290   117287856.034          35.500    22319134.095    91393134.641        1984.911          35.500                                                                  
G04  21416640.555   112545207.784        1500.618          49.250    21416640.085   112545208.055          40.500    21416639.740    87697564.948        1169.305          40.500                                                                  
G32  25038676.585   131579135.812       -3632.396          39.250    25038676.261   131579135.023          21.500    25038676.522   102529195.907       -2830.440          21.500                                                                  
G17  20046608.557   105345642.644        -440.007          53.000    20046607.897   105345642.919          47.750    20046606.716    82087515.179        -342.861          47.750    20046606.938    82087514.940        -342.865          52.750  
G28  23544756.195   123728536.530       -3433.690          43.500    23544755.452   123728535.792          31.750    23544756.234    96411846.618       -2675.593          31.750                                                                  
G23  21930392.354   115245000.780         543.962          50.250    21930391.920   115245002.064          38.750    21930389.197    89801299.869         423.854          38.750                                                                  
G24  24651273.157   129543308.141       -2750.985          40.750    24651273.025   129543313.391          22.250    24651275.561   100942841.107       -2143.689          22.250                                                                  
G12  24892809.138   130812591.926        1545.075          43.500    24892808.568   130812591.159          28.500    24892808.053   101931890.603        1204.088          28.500    24892808.964   101931890.382        1203.981          41.750  
G20  22108395.706   116180409.974       -3069.469          48.750    22108394.045   116180408.238          37.250    22108394.018    90530189.302       -2391.806          37.250                                                                  
R20  19286495.884   103133557.908         700.654          52.250    19286495.602   103133557.213          50.750    19286502.353    80214990.307         544.962          49.000    19286502.545    80214989.551         544.944          48.250  
R06  20702840.142   110474322.590        2605.169          53.000    20702840.211   110474321.885          52.250    20702845.424    85924471.212        2026.240          48.500    20702845.394    85924472.441        2026.235          46.750  
S29  40073147.924   210585809.139        -243.363          42.250  
S37  40101222.747   210733345.128        -243.127          41.000  
> 2011 01 15 02 26 54.0000000  0 19                     
G11  24443749.394   128452769.520       -3082.039          42.250    24443748.180   128452769.793          26.750    24443747.898   100093067.601       -2401.582          26.750                                                                  
G02  24372618.369   128078987.426        2375.424          47.750    24372618.291   128078988.687          31.250    24372617.332    99801810.162        1851.000          31.250                                                                  
R05  19216590.482   102723689.631       -1196.248          54.500    19216590.416   102723688.933          53.750    19216596.259    79896203.226        -930.413          49.500    19216596.835    79896203.466        -930.411          47.750  
R21  22156521.716   118564017.588        3495.214          49.500    22156521.434   118564024.890          49.000    22156527.661    92216462.395        2718.494          46.500    22156527.211    92216464.642        2718.490          45.000  
R19  20987824.552   112270709.394       -2984.979          52.500    20987824.154   112270709.703          51.500    20987828.785    87321662.189       -2321.643          48.000    20987829.244    87321663.431       -2321.664          46.750  
G10  22350210.593   117451153.522        2784.414          48.000    22350209.997   117451156.803          36.750    22350210.572    91520382.537        2169.645          36.750                                                                  
G13  22318650.269   117285306.907        2546.680          46.750    22318649.406   117285309.173          36.000    22318649.412    91391150.077        1984.395          36.000                                                                  
G04  21416354.793   112543707.498        1500.281          49.250    21416354.619   112543707.773          40.250    21416354.379    87696395.896        1169.035          40.250                                                                  
G32  25039365.763   131582768.455       -3632.710          39.000    25039367.019   131582767.698          21.000    25039368.227   102532026.528       -2830.609          21.000                                                                  
G17  20046692.343   105346083.240        -440.852          52.750    20046691.839   105346083.514          47.750    20046690.493    82087858.500        -343.520          47.750    20046690.928    82087858.260        -343.523          52.750  
G28  23545409.755   123731970.383       -3433.866          43.500    23545408.907   123731969.649          32.000    23545410.091    96414522.334       -2675.661          32.000                                                                  
G23  21930289.460   115244457.338         543.213          50.500    21930288.677   115244458.623          39.000    21930285.859    89800876.413         423.261          39.000                                                                  
G24  24651797.344   129546059.386       -2751.332          40.500    24651796.465   129546064.639          23.250    24651799.146   100944984.924       -2143.841          23.250                                                                  
G12  24892514.820   130811047.217        1544.473          43.250    24892515.182   130811046.465          28.250    24892513.887   101930686.943        1203.419          28.250    24892515.089   101930686.717        1203.457          41.750  
G20  22108979.894   116183479.741       -3069.883          48.750    22108978.787   116183478.012          37.500    22108978.287    90532581.318       -2392.072          37.500                                                                  
R20  19286364.089   103132857.862         699.778          52.000    19286364.572   103132857.165          51.000    19286372.189    80214445.827         544.276          49.000    19286371.503    80214445.070         544.265          48.250  
R06  20702352.062   110471717.976        2604.373          53.000    20702352.200   110471717.273          52.250    20702357.527    85922445.402        2025.631          48.750    20702357.092    85922446.632        2025.637          46.500  
S29  40073195.339   210586052.818        -244.030          42.500  
S37  40101267.560   210733588.733        -243.334          41.250  
> 2011 01 15 02 26 55.0000000  0 19                     
G11  24444336.223   128455851.516       -3082.185          42.000    24444334.781   128455851.756          26.750    24444334.125   100095469.156       -2401.714          26.750                                                                  
G02  24372166.246   128076611.843        2375.464          47.750    24372166.028   128076613.114          31.500    24372165.728    99799959.066        1850.973          31.500                                                                  
R05  19216814.697   102724886.119       -1196.974          54.500    19216814.379   102724885.418          53.500    19216820.405    79897133.825        -930.966          49.500    19216821.023    79897134.069        -930.982          47.750  
R21  22155868.375   118560522.340        3495.050          49.250    22155868.223   118560529.640          49.000    22155874.161    92213743.870        2718.362          46.750    22155873.745    92213746.117        2718.367          45.000  
R19  20988382.130   112273694.502       -2985.518          52.500    20988382.355   112273694.811          51.750    20988387.233    87323983.938       -2322.064          48.000    20988387.467    87323985.179       -2322.078          46.500  
G10  22349681.001   117448369.160        2784.049          48.000    22349679.961   117448372.441          37.000    22349680.812    91518212.896        2169.406          37.000                                                                  
G13  22318165.316   117282760.207        2546.369          46.500    22318165.043   117282762.482          35.500    22318164.389    91389165.630        1984.217          35.500                                                                  
G04  21416069.550   112542207.274        1500.004          49.250    21416068.791   112542207.552          40.000    21416068.782    87695226.883        1168.878          40.000                                                                  
G32  25040056.766   131586400.890       -3632.726          39.000    25040057.939   131586400.158          21.000    25040058.841   102534857.007       -2830.726          21.000                                                                  
G17  20046776.135   105346524.248        -441.397          52.750    20046775.754   105346524.523          47.750    20046774.381    82088202.142        -343.943          47.750    20046774.369    82088201.903        -343.942          52.750  
G28  23546063.024   123735404.145       -3433.898          43.750    23546062.868   123735403.418          32.000    23546063.183    96417197.996       -2675.834          32.000                                                                  
G23  21930186.076   115243914.332         542.582          50.000    21930185.273   115243915.616          39.250    21930182.569    89800453.288         422.798          39.250                                                                  
G24  24652319.501   129548810.466       -2751.275          40.500    24652320.248   129548815.678          23.250    24652323.054   100947128.639       -2143.874          23.250                                                                  
G12  24892221.071   130809502.861        1544.051          42.750    24892220.522   130809502.075          28.500    24892219.941   101929483.544        1203.207          28.500    24892220.312   101929483.313        1203.206          42.000  
G20  22109564.282   116186549.551       -3069.985          48.750    22109563.434   116186547.824          37.750    22109562.618    90534973.387       -2392.223          37.750                                                                  
R20  19286234.827   103132158.281         699.150          52.000    19286233.841   103132157.584          51.000    19286241.363    80213901.712         543.779          49.000    19286240.658    80213900.953         543.785          48.250  
R06  20701863.673   110469113.751        2603.806          53.000    20701864.171   110469113.043          52.250    20701868.167    85920419.895        2025.176          48.500    20701868.961    85920421.123        2025.184          46.500  
S29  40073240.812   210586296.865        -244.242          42.500  
S37  40101314.855   210733831.787        -243.124          41.750  
> 2011 01 15 02 26 56.0000000  0 19                     
G11  24444922.413   128458934.045       -3082.956          42.500    24444920.998   128458934.299          27.000    24444920.767   100097871.111       -2402.272          27.000                                                                  
G02  24371714.780   128074236.690        2374.992          47.750    24371713.974   128074237.955          31.750    24371713.425    99798108.294        1850.703          31.750                                                                  
R05  19217038.501   102726083.758       -1198.193          54.500    19217038.432   102726083.060          53.750    19217044.332    79898065.324        -931.921          49.500    19217044.884    79898065.567        -931.944          48.000  
R21  22155214.543   118557027.666        3494.443          49.500    22155215.059   118557034.965          49.250    22155221.214    92211025.791        2717.901          46.750    22155221.130    92211028.036        2717.898          45.250  
R19  20988941.105   112276680.588       -2986.557          52.500    20988940.416   112276680.894          51.750    20988945.198    87326306.449       -2322.885          48.000    20988945.620    87326307.688       -2322.876          46.500  
G10  22349151.330   117445585.579        2783.211          47.750    22349150.311   117445588.865          37.000    22349151.076    91516043.873        2168.735          37.000                                                                  
G13  22317681.181   117280214.314        2545.427          46.750    22317680.419   117280216.581          35.750    22317679.391    91387181.817        1983.404          35.750                                                                  
