     3.04           OBSERVATION DATA    M: Mixed            RINEX VERSION / TYPE
CONVBIN demo5 b34f.1                    20220524 041754 UTC PGM / RUN BY / DATE 
log: /home/igor/git/flutter_rtklib/test/data/rcvraw/oemv_200COMMENT             
format: NovAtel OEM7                                        COMMENT             
format: NovAtel OEM7                                        COMMENT             
log: /home/igor/git/flutter_rtklib/test/data/rcvraw/oemv_200COMMENT             
                                                            MARKER NAME         
                                                            MARKER NUMBER       
                                                            MARKER TYPE         
                                                            OBSERVER / AGENCY   
                                                            REC # / TYPE / VERS 
                                                            ANT # / TYPE        
 -3869293.4777  3436568.2779  3717368.7232                  APPROX POSITION XYZ 
        0.0000        0.0000        0.0000                  ANTENNA: DELTA H/E/N
G    6 C1C L1C S1C C2W L2W S2W                              SYS / # / OBS TYPES 
R    6 C1C L1C S1C C2P L2P S2P                              SYS / # / OBS TYPES 
S    3 C1C L1C S1C                                          SYS / # / OBS TYPES 
    10.000                                                  INTERVAL            
  2009    12    18    23    07   00.0000000     GPS         TIME OF FIRST OBS   
  2009    12    18    23    07   40.0000000     GPS         TIME OF LAST OBS    
G L1C                                                       SYS / PHASE SHIFT   
G L2W  0.00000                                              SYS / PHASE SHIFT   
R L1C                                                       SYS / PHASE SHIFT   
R L2P  0.00000                                              SYS / PHASE SHIFT   
S L1C                                                       SYS / PHASE SHIFT   
  5 R13 -2 R14 -7 R15  0 R17  4 R23  3                      GLONASS SLOT / FRQ #
 C1C    0.000 C1P    0.000 C2C    0.000 C2P    0.000        GLONASS COD/PHS/BIS 
                                                            END OF HEADER       
> 2009 12 18 23 07 00.0000000  0 16                     
G03  20213930.641   106224932.5121         51.000    20213929.547    82772666.9651         45.000  
G22  24674143.680   129663505.1171         43.000    24674141.344   101036496.5621         36.000  
G13  24389990.742   128170248.4531         43.000    24389990.109    99872919.4101         35.000  
G06  21118916.336   110980659.8521         50.000    21118915.977    86478431.9411         43.000  
G07  21872690.922   114941763.4101         50.000    21872689.125    89565004.4491         43.000  
G19  20421761.297   107317079.0041         51.000    20421757.836    83623678.4921         47.000  
G11  23656736.570   124316992.9881         47.000    23656735.164    96870386.4491         34.000  
G16  22489005.375   118180510.3751         48.000    22489004.117    92088695.8161         40.000  
G08  24725782.039   129934871.3791         41.000    24725781.547   101247930.6171         36.000  
S29  37175537.062   197915775.8361         45.000  
S37  37214033.391   198118096.3321         43.000  
R14  19271851.070   102729811.3671         49.000    19271859.297    79901064.6021         46.000  
R17  21115655.148   112994130.3751         46.000    21115656.398    87884325.2231         43.000  
R13  21815848.070   116495399.6411         45.000    21815854.477    90607631.8631         43.000  
R23  22657649.695   121203139.4801         37.000    22657652.930    94269204.0121         33.000  
R15  21365653.828   114171577.1721         45.000    21365659.266    88800142.2461         42.000  
> 2009 12 18 23 07 10.0000000  0 16                     
G03  20216103.688   106236351.832          51.000    20216102.586    82781565.137          44.000  
G22  24671271.258   129648410.801          43.000    24671268.992   101024734.766          33.000  
G13  24394542.195   128194166.672          42.000    24394541.508    99891556.973          34.000  
G06  21121989.797   110996811.051          50.000    21121989.430    86491017.281          43.000  
G07  21869206.359   114923452.258          50.000    21869204.727    89550736.012          43.000  
G19  20421416.898   107315269.090          51.000    20421413.422    83622268.172          47.000  
G11  23649704.125   124280036.465          46.000    23649702.359    96841589.133          34.000  
G16  22492982.773   118201412.156          48.000    22492981.648    92104982.887          40.000  
G08  24718944.023   129898937.523          39.000    24718943.742   101219930.238          32.000  
S29  37175527.531   197915725.641          45.000  
S37  37214027.617   198118065.656          43.000  
R14  19273407.500   102738108.246          49.000    19273415.852    79907517.727          46.000  
R17  21112219.078   112975743.320          46.000    21112220.234    87870024.188          44.000  
R13  21823437.500   116535927.328          45.000    21823443.977    90639153.387          43.000  
R23  22663721.570   121235621.059          37.000    22663725.016    94294467.445          33.000  
R15  21359646.070   114139473.395          46.000    21359651.695    88775172.641          43.000  
> 2009 12 18 23 07 20.0000000  0 16                     
G03  20218282.898   106247803.492          51.000    20218281.758    82790488.508          43.000  
G22  24668404.961   129633348.867          42.000    24668402.758   101012998.207          35.000  
G13  24399098.023   128218108.238          43.000    24399097.406    99910212.715          31.000  
G06  21125067.148   111012982.656          50.000    21125066.766    86503618.535          43.000  
G07  21865732.906   114905199.465          50.000    21865731.320    89536513.066          43.000  
G19  20421079.977   107313498.328          51.000    20421076.422    83620888.359          47.000  
G11  23642674.648   124243096.613          45.000    23642672.961    96812804.848          34.000  
G16  22496965.250   118222340.008          48.000    22496964.016    92121290.312          39.000  
G08  24712110.125   129863025.328          40.000    24712109.945   101191946.711          35.000  
S29  37175518.125   197915676.066          45.000  
S37  37214022.117   198118036.293          44.000  
R14  19274981.172   102746496.781          50.000    19274989.539    79914042.137          46.000  
R17  21108790.758   112957397.914          46.000    21108791.953    87855755.539          44.000  
R13  21831034.273   116576493.984          45.000    21831040.922    90670705.203          43.000  
R23  22669793.422   121268101.004          38.000    22669796.836    94319729.609          33.000  
R15  21353648.445   114107423.957          46.000    21353653.977    88750245.301          43.000  
> 2009 12 18 23 07 30.0000000  0 16                     
G03  20220467.742   106259284.785          51.000    20220466.602    82799434.973          44.000  
G22  24665544.422   129618316.918          43.000    24665542.406   101001285.008          34.000  
G13  24403657.906   128242070.582          42.000    24403657.438    99928884.668          32.000  
G06  21128147.883   111029172.051          50.000    21128147.461    86516233.645          42.000  
G07  21862270.086   114887002.586          49.000    21862268.609    89522333.680          43.000  
G19  20420750.023   107311764.199          51.000    20420746.414    83619537.094          47.000  
G11  23635647.648   124206170.957          44.000    23635646.070    96784031.645          36.000  
G16  22500952.250   118243291.484          48.000    22500950.867    92137616.145          39.000  
G08  24705280.008   129827132.668          40.000    24705279.891   101163978.406          31.000  
S29  37175508.117   197915624.523          45.000  
S37  37214016.297   198118005.707          43.000  
R14  19276571.586   102754974.488          50.000    19276579.914    79920635.910          46.000  
R17  21105369.766   112939091.668          46.000    21105370.984    87841517.363          44.000  
R13  21838637.945   116617097.094          45.000    21838644.516    90702285.406          43.000  
R23  22675864.266   121300576.652          38.000    22675867.672    94344988.445          34.000  
R15  21347660.594   114075427.105          45.000    21347666.367    88725358.871          43.000  
> 2009 12 18 23 07 40.0000000  0 16                     
G03  20222658.781   106270798.621          51.000    20222657.625    82808406.789          43.000  
G22  24662690.195   129603317.812          43.000    24662688.078   100989597.398          29.000  
G13  24408222.289   128266056.562          42.000    24408221.773    99947575.023          35.000  
G06  21131232.508   111045381.930          50.000    21131232.078    86528864.711          43.000  
G07  21858818.531   114868864.730          49.000    21858817.281    89508200.273          43.000  
G19  20420427.570   107310069.516          51.000    20420423.906    83618216.562          46.000  
G11  23628623.945   124169262.527          44.000    23628622.352    96755271.840          34.000  
G16  22504944.242   118264269.406          48.000    22504942.750    92153962.578          38.000  
G08  24698454.070   129791262.359          41.000    24698454.000   101136027.520          32.000  
S29  37175498.789   197915575.457          45.000  
S37  37214010.516   198117975.625          43.000  
R14  19278179.203   102763544.090          50.000    19278187.539    79927301.152          46.000  
R17  21101956.570   112920827.297          46.000    21101957.805    87827311.742          44.000  
R13  21846248.758   116657739.156          45.000    21846255.281    90733895.875          43.000  
R23  22681935.078   121333050.871          37.000    22681938.312    94370246.160          33.000  
R15  21341683.039   114043484.953          45.000    21341688.844    88700514.965          43.000  
