     3.00           OBSERVATION DATA    M: Mixed            RINEX VERSION / TYPE
CONVBIN demo5 b34f.1                    20220527 015938 UTC PGM / RUN BY / DATE 
log: /home/igor/git/flutter_rtklib/test/data/rcvraw/oemv_200COMMENT             
format: NovAtel OEM7                                        COMMENT             
format: NovAtel OEM7                                        COMMENT             
log: /home/igor/git/flutter_rtklib/test/data/rcvraw/oemv_200COMMENT             
                                                            MARKER NAME         
                                                            MARKER NUMBER       
                                                            MARKER TYPE         
                                                            OBSERVER / AGENCY   
                                                            REC # / TYPE / VERS 
                                                            ANT # / TYPE        
 -3869293.4777  3436568.2779  3717368.7232                  APPROX POSITION XYZ 
        0.0000        0.0000        0.0000                  ANTENNA: DELTA H/E/N
G    8 C1C L1C D1C S1C C2W L2W D2W S2W                      SYS / # / OBS TYPES 
R    8 C1C L1C D1C S1C C2P L2P D2P S2P                      SYS / # / OBS TYPES 
S    4 C1C L1C D1C S1C                                      SYS / # / OBS TYPES 
  2009    12    18    23    07   00.0000000     GPS         TIME OF FIRST OBS   
  2009    12    18    23    07   45.0000000     GPS         TIME OF LAST OBS    
                                                            END OF HEADER       
> 2009 12 18 23 07 00.0000000  0 16                     
G03  20213930.641   106224932.5121      -1140.227          51.000    20213929.547    82772666.9651       -888.492          45.000  
G22  24674143.680   129663505.1171       1511.258          43.000    24674141.344   101036496.5621       1177.598          36.000  
G13  24389990.742   128170248.4531      -2390.738          43.000    24389990.109    99872919.4101      -1862.918          35.000  
G06  21118916.336   110980659.8521      -1613.992          50.000    21118915.977    86478431.9411      -1257.660          43.000  
G07  21872690.922   114941763.4101       1834.066          50.000    21872689.125    89565004.4491       1429.145          43.000  
G19  20421761.297   107317079.0041        183.016          51.000    20421757.836    83623678.4921        142.609          47.000  
G11  23656736.570   124316992.9881       3696.750          47.000    23656735.164    96870386.4491       2880.586          34.000  
G16  22489005.375   118180510.3751      -2088.770          48.000    22489004.117    92088695.8161      -1627.617          40.000  
G08  24725782.039   129934871.3791       3594.996          41.000    24725781.547   101247930.6171       2801.289          36.000  
S29  37175537.062   197915775.8361          5.531          45.000  
S37  37214033.391   198118096.3321          3.500          43.000  
R14  19271851.070   102729811.3671       -824.980          49.000    19271859.297    79901064.6021       -641.656          46.000  
R17  21115655.148   112994130.3751       1840.875          46.000    21115656.398    87884325.2231       1431.789          43.000  
R13  21815848.070   116495399.6411      -4050.910          45.000    21815854.477    90607631.8631      -3150.711          43.000  
R23  22657649.695   121203139.4801      -3247.988          37.000    22657652.930    94269204.0121      -2526.219          33.000  
R15  21365653.828   114171577.1721       3213.070          45.000    21365659.266    88800142.2461       2499.055          42.000  
> 2009 12 18 23 07 01.0000000  0 16                     
G03  20214147.664   106226073.008       -1140.570          51.000    20214146.586    82773555.664        -888.762          44.000  
G22  24673856.156   129661994.250        1510.793          42.000    24673853.828   101035319.270        1177.242          36.000  
G13  24390445.688   128172639.238       -2390.852          43.000    24390444.969    99874782.367       -1863.000          34.000  
G06  21119223.508   110982274.062       -1614.297          50.000    21119223.148    86479689.766       -1257.898          44.000  
G07  21872341.969   114939929.688        1833.465          49.000    21872340.180    89563575.570        1428.676          43.000  
G19  20421726.523   107316896.270         182.559          50.000    20421723.062    83623536.102         142.254          47.000  
G11  23656033.195   124313296.602        3696.438          47.000    23656031.773    96867506.152        2880.336          35.000  
G16  22489402.891   118182599.391       -2089.148          48.000    22489401.648    92090323.617       -1627.910          39.000  
G08  24725098.031   129931277.031        3594.254          40.000    24725097.562   101245129.828        2800.715          34.000  
S29  37175536.031   197915770.469           5.352          44.000  
S37  37214032.742   198118092.906           3.777          43.000  
R14  19272005.938   102730636.953        -826.125          49.000    19272014.188    79901706.727        -642.547          46.000  
R17  21115311.195   112992289.789        1840.629          46.000    21115312.430    87882893.656        1431.598          43.000  
R13  21816606.688   116499450.652       -4051.266          45.000    21816613.102    90610782.648       -3150.988          43.000  
R23  22658256.930   121206387.742       -3248.066          37.000    22658260.180    94271730.438       -2526.277          32.000  
R15  21365052.594   114168364.344        3212.547          45.000    21365058.047    88797643.379        2498.648          42.000  
> 2009 12 18 23 07 02.0000000  0 16                     
G03  20214364.742   106227213.734       -1140.824          51.000    20214363.656    82774444.539        -888.957          44.000  
G22  24673568.672   129660483.598        1510.723          43.000    24673566.422   101034142.133        1177.188          36.000  
G13  24390900.664   128175030.160       -2390.961          43.000    24390899.922    99876645.430       -1863.086          35.000  
G06  21119530.703   110983888.402       -1614.383          50.000    21119530.359    86480947.695       -1257.965          43.000  
G07  21871993.102   114938096.457        1833.004          49.000    21871991.336    89562147.078        1428.316          43.000  
G19  20421691.812   107316713.824         182.336          50.000    20421688.344    83623393.934         142.078          47.000  
G11  23655329.820   124309600.297        3696.160          46.000    23655328.383    96864625.906        2880.121          34.000  
G16  22489800.438   118184688.582       -2089.340          48.000    22489799.227    92091951.559       -1628.062          40.000  
G08  24724414.094   129927682.820        3593.871          40.000    24724413.570   101242329.152        2800.414          36.000  
S29  37175535.047   197915765.281           5.129          44.000  
S37  37214032.109   198118089.492           3.633          43.000  
R14  19272160.969   102731463.363        -826.754          49.000    19272169.234    79902349.488        -643.035          46.000  
R17  21114967.281   112990449.547        1839.984          46.000    21114968.531    87881462.355        1431.098          43.000  
R13  21817365.367   116503501.977       -4051.684          45.000    21817371.766    90613933.676       -3151.312          43.000  
R23  22658864.156   121209635.930       -3248.266          37.000    22658867.383    94274256.801       -2526.434          33.000  
R15  21364451.445   114165151.965        3212.375          45.000    21364456.914    88795144.863        2498.516          42.000  
> 2009 12 18 23 07 03.0000000  0 16                     
G03  20214581.875   106228354.773       -1141.328          51.000    20214580.797    82775333.660        -889.352          44.000  
G22  24673281.266   129658973.270        1510.148          43.000    24673278.969   101032965.258        1176.738          36.000  
G13  24391355.688   128177421.301       -2391.359          43.000    24391354.984    99878508.656       -1863.398          34.000  
G06  21119837.938   110985502.930       -1614.676          50.000    21119837.586    86482205.766       -1258.191          43.000  
G07  21871644.352   114936263.781        1832.285          50.000    21871642.602    89560719.020        1427.750          43.000  
G19  20421657.180   107316531.766         181.770          51.000    20421653.695    83623252.074         141.637          47.000  
G11  23654626.484   124305904.133        3695.961          46.000    23654624.977    96861745.777        2879.965          35.000  
G16  22490198.031   118186778.016       -2089.684          48.000    22490196.844    92093579.684       -1628.328          39.000  
G08  24723730.172   129924088.797        3593.672          40.000    24723729.688   101239528.629        2800.266          35.000  
S29  37175534.047   197915760.184           4.828          45.000  
S37  37214031.539   198118086.305           3.105          43.000  
R14  19272316.164   102732290.664        -827.828          49.000    19272324.438    79902992.945        -643.871          46.000  
R17  21114623.469   112988609.734        1839.230          46.000    21114624.703    87880031.395        1430.512          44.000  
R13  21818124.109   116507553.676       -4052.023          45.000    21818130.500    90617084.996       -3151.578          44.000  
R23  22659471.320   121212884.043       -3248.941          37.000    22659474.578    94276783.113       -2526.957          33.000  
R15  21363850.391   114161940.121        3211.297          46.000    21363855.891    88792646.766        2497.676          43.000  
> 2009 12 18 23 07 04.0000000  0 16                     
G03  20214799.070   106229496.129       -1141.445          51.000    20214797.984    82776223.031        -889.438          44.000  
G22  24672993.930   129657463.266        1509.938          43.000    24672991.633   101031788.633        1176.574          35.000  
G13  24391810.727   128179812.672       -2391.426          43.000    24391810.047    99880372.055       -1863.449          32.000  
G06  21120145.219   110987117.668       -1614.848          50.000    21120144.859    86483464.000       -1258.328          43.000  
G07  21871295.711   114934431.699        1831.742          50.000    21871293.977    89559291.422        1427.332          43.000  
G19  20421622.609   107316350.098         181.453          51.000    20421619.133    83623110.516         141.391          47.000  
G11  23653923.172   124302208.152        3695.820          46.000    23653921.641    96858865.801        2879.859          35.000  
G16  22490595.680   118188867.715       -2089.902          47.000    22490594.484    92095208.016       -1628.500          41.000  
G08  24723046.289   129920494.996        3593.828          40.000    24723045.789   101236728.277        2800.391          34.000  
S29  37175533.055   197915754.871           5.309          45.000  
S37  37214030.945   198118083.137           3.270          43.000  
R14  19272471.539   102733118.887        -828.777          49.000    19272479.820    79903637.117        -644.609          46.000  
R17  21114279.695   112986770.309        1839.035          46.000    21114280.953    87878600.730        1430.359          44.000  
R13  21818882.922   116511605.770       -4052.340          45.000    21818889.312    90620236.621       -3151.824          43.000  
R23  22660078.516   121216132.121       -3248.129          37.000    22660081.766    94279309.391       -2526.145          34.000  
R15  21363249.445   114158728.820        3210.871          46.000    21363254.977    88790149.086        2497.344          43.000  
> 2009 12 18 23 07 05.0000000  0 16                     
G03  20215016.336   106230637.852       -1141.766          51.000    20215015.258    82777112.691        -889.688          44.000  
G22  24672706.633   129655953.625        1509.633          43.000    24672704.383   101030612.297        1176.336          34.000  
G13  24392265.836   128182204.344       -2391.746          43.000    24392265.164    99882235.691       -1863.703          31.000  
G06  21120452.523   110988732.648       -1615.047          50.000    21120452.172    86484722.422       -1258.480          43.000  
G07  21870947.195   114932600.250        1831.215          50.000    21870945.469    89557864.324        1426.922          43.000  
G19  20421588.125   107316168.871         181.004          50.000    20421584.648    83622969.297         141.039          47.000  
G11  23653219.906   124298512.375        3695.676          46.000    23653218.320    96855985.965        2879.742          33.000  
G16  22490993.391   118190957.727       -2090.105          47.000    22490992.219    92096836.594       -1628.656          40.000  
G08  24722362.461   129916901.477        3593.285          40.000    24722361.992   101233928.133        2799.961          32.000  
S29  37175532.086   197915749.816           4.910          44.000  
S37  37214030.391   198118080.102           3.129          43.000  
R14  19272627.086   102733948.074        -829.582          49.000    19272635.375    79904282.039        -645.234          46.000  
R17  21113936.031   112984931.340        1838.863          46.000    21113937.289    87877170.426        1430.227          44.000  
R13  21819641.812   116515658.301       -4052.488          45.000    21819648.211    90623388.586       -3151.938          44.000  
R23  22660685.656   121219380.227       -3247.828          36.000    22660688.969    94281835.699       -2526.094          33.000  
R15  21362648.586   114155518.121        3210.707          46.000    21362654.164    88787651.879        2497.215          43.000  
> 2009 12 18 23 07 06.0000000  0 16                     
G03  20215233.641   106231779.777       -1142.109          51.000    20215232.555    82778002.500        -889.957          44.000  
G22  24672419.383   129654444.188        1509.473          43.000    24672417.172   101029436.109        1176.211          35.000  
G13  24392720.961   128184596.121       -2392.191          43.000    24392720.297    99884099.410       -1864.051          32.000  
G06  21120759.859   110990347.680       -1615.129          50.000    21120759.508    86485980.891       -1258.547          43.000  
G07  21870598.758   114930769.250        1830.715          50.000    21870597.062    89556437.570        1426.531          43.000  
G19  20421553.688   107315987.902         180.773          51.000    20421550.211    83622828.281         140.859          47.000  
G11  23652516.648   124294816.633        3695.551          46.000    23652515.047    96853106.168        2879.645          35.000  
G16  22491391.125   118193047.855       -2090.172          47.000    22491389.969    92098465.270       -1628.711          40.000  
G08  24721678.688   129913308.023        3593.289          40.000    24721678.180   101231128.027        2799.961          35.000  
S29  37175531.133   197915744.625           5.156          44.000  
S37  37214029.797   198118076.988           3.203          43.000  
R14  19272782.789   102734778.039        -830.465          49.000    19272791.078    79904927.570        -645.922          46.000  
R17  21113592.445   112983092.660        1838.582          46.000    21113593.672    87875740.344        1430.008          44.000  
R13  21820400.742   116519711.078       -4053.008          45.000    21820407.164    90626540.742       -3152.344          43.000  
R23  22661292.812   121222628.188       -3247.531          37.000    22661296.148    94284361.887       -2525.863          33.000  
R15  21362047.836   114152307.855        3209.953          46.000    21362053.430    88785155.008        2496.629          43.000  
> 2009 12 18 23 07 07.0000000  0 16                     
G03  20215451.023   106232922.121       -1142.453          51.000    20215449.938    82778892.637        -890.223          44.000  
G22  24672132.219   129652935.176        1508.961          43.000    24672129.992   101028260.246        1175.809          36.000  
G13  24393176.164   128186988.219       -2392.324          43.000    24393175.508    99885963.375       -1864.152          35.000  
G06  21121067.258   110991963.055       -1615.430          50.000    21121066.898    86487239.621       -1258.781          43.000  
G07  21870250.453   114928938.934        1830.062          50.000    21870248.773    89555011.352        1426.023          43.000  
G19  20421519.344   107315807.430         180.297          51.000    20421515.867    83622687.652         140.488          47.000  
G11  23651813.445   124291121.152        3695.434          46.000    23651811.789    96850226.566        2879.555          32.000  
G16  22491788.922   118195138.371       -2090.758          47.000    22491787.797    92100094.242       -1629.164          40.000  
G08  24720994.914   129909714.887        3592.758          39.000    24720994.438   101228328.184        2799.547          31.000  
S29  37175530.164   197915739.707           5.188          45.000  
S37  37214029.219   198118073.988           2.715          43.000  
R14  19272938.680   102735609.039        -831.395          49.000    19272946.984    79905573.902        -646.645          46.000  
R17  21113248.945   112981254.508        1838.008          46.000    21113250.156    87874310.668        1429.562          43.000  
R13  21821159.789   116523764.367       -4053.699          45.000    21821166.219    90629693.301       -3152.883          43.000  
R23  22661899.984   121225876.270       -3248.250          37.000    22661903.352    94286888.168       -2526.422          33.000  
R15  21361447.219   114149098.234        3209.504          46.000    21361452.820    88782658.637        2496.281          43.000  
> 2009 12 18 23 07 08.0000000  0 16                     
G03  20215668.508   106234064.949       -1143.156          51.000    20215667.414    82779783.156        -890.770          44.000  
G22  24671845.156   129651426.625        1508.316          43.000    24671842.914   101027084.754        1175.309          35.000  
G13  24393631.438   128189380.719       -2392.738          42.000    24393630.773    99887827.660       -1864.477          32.000  
G06  21121374.711   110993578.742       -1616.113          50.000    21121374.352    86488498.598       -1259.312          43.000  
G07  21869902.289   114927109.371        1829.117          50.000    21869900.641    89553585.715        1425.285          43.000  
G19  20421485.102   107315627.500         179.633          51.000    20421481.625    83622547.453         139.969          47.000  
G11  23651110.281   124287426.004        3694.949          46.000    23651108.594    96847347.227        2879.176          34.000  
G16  22492186.797   118197229.285       -2091.230          47.000    22492185.680    92101723.516       -1629.535          40.000  
G08  24720311.227   129906122.117        3592.570          40.000    24720310.812   101225528.648        2799.410          35.000  
S29  37175529.234   197915734.766           4.750          45.000  
S37  37214028.672   198118071.203           2.477          43.000  
R14  19273094.766   102736441.105        -832.562          50.000    19273103.086    79906221.062        -647.551          46.000  
R17  21112905.570   112979416.941        1837.133          46.000    21112906.758    87872881.449        1428.883          44.000  
R13  21821918.945   116527818.207       -4054.246          45.000    21821925.383    90632846.293       -3153.305          43.000  
R23  22662507.125   121229124.445       -3248.305          37.000    22662510.547    94289414.531       -2526.465          32.000  
R15  21360846.727   114145889.324        3208.523          46.000    21360852.336    88780162.820        2495.520          43.000  
> 2009 12 18 23 07 09.0000000  0 16                     
G03  20215886.078   106235208.289       -1143.488          51.000    20215884.977    82780674.066        -891.035          44.000  
G22  24671558.188   129649918.617        1507.836          43.000    24671555.914   101025909.688        1174.938          35.000  
G13  24394086.797   128191773.633       -2392.988          42.000    24394086.172    99889692.258       -1864.672          31.000  
G06  21121682.258   110995194.895       -1616.250          50.000    21121681.891    86489757.938       -1259.418          43.000  
G07  21869554.281   114925280.586        1828.539          50.000    21869552.641    89552160.688        1424.836          43.000  
G19  20421450.977   107315448.168         179.172          51.000    20421447.500    83622407.711         139.613          47.000  
G11  23650407.203   124283731.215        3694.758          46.000    23650405.484    96844468.168        2879.023          34.000  
G16  22492584.773   118199320.648       -2091.434          48.000    22492583.656    92103353.148       -1629.691          39.000  
G08  24719627.617   129902529.789        3592.020          40.000    24719627.297   101222729.422        2798.977          36.000  
S29  37175528.398   197915730.141           4.355          45.000  
S37  37214028.203   198118068.621           2.703          43.000  
R14  19273251.070   102737274.285        -833.613          50.000    19273259.391    79906869.086        -648.371          46.000  
R17  21112562.305   112977579.984        1836.570          46.000    21112563.469    87871452.703        1428.445          44.000  
R13  21822678.195   116531872.633       -4054.633          45.000    21822684.648    90635999.738       -3153.605          43.000  
R23  22663114.359   121232372.820       -3247.922          37.000    22663117.812    94291941.043       -2526.164          33.000  
R15  21360246.367   114142681.148        3207.855          46.000    21360251.977    88777667.566        2494.996          43.000  
> 2009 12 18 23 07 10.0000000  0 16                     
G03  20216103.688   106236351.832       -1143.660          51.000    20216102.586    82781565.137        -891.168          44.000  
G22  24671271.258   129648410.801        1507.633          43.000    24671268.992   101024734.766        1174.777          33.000  
G13  24394542.195   128194166.672       -2393.188          42.000    24394541.508    99891556.973       -1864.824          34.000  
G06  21121989.797   110996811.051       -1616.156          50.000    21121989.430    86491017.281       -1259.348          43.000  
G07  21869206.359   114923452.258        1828.102          50.000    21869204.727    89550736.012        1424.492          43.000  
G19  20421416.898   107315269.090         178.902          51.000    20421413.422    83622268.172         139.406          47.000  
G11  23649704.125   124280036.465        3694.848          46.000    23649702.359    96841589.133        2879.098          34.000  
G16  22492982.773   118201412.156       -2091.602          48.000    22492981.648    92104982.887       -1629.824          40.000  
G08  24718944.023   129898937.523        3592.488          39.000    24718943.742   101219930.238        2799.336          32.000  
S29  37175527.531   197915725.641           4.535          45.000  
S37  37214027.617   198118065.656           3.305          43.000  
R14  19273407.500   102738108.246        -834.395          49.000    19273415.852    79907517.727        -648.977          46.000  
R17  21112219.078   112975743.320        1836.367          46.000    21112220.234    87870024.188        1428.285          44.000  
R13  21823437.500   116535927.328       -4054.883          45.000    21823443.977    90639153.387       -3153.801          43.000  
R23  22663721.570   121235621.059       -3247.844          37.000    22663725.016    94294467.445       -2526.105          33.000  
R15  21359646.070   114139473.395        3207.422          46.000    21359651.695    88775172.641        2494.656          43.000  
> 2009 12 18 23 07 11.0000000  0 16                     
G03  20216321.344   106237495.566       -1143.730          51.000    20216320.234    82782456.359        -891.223          44.000  
G22  24670984.336   129646903.168        1507.438          42.000    24670982.039   101023559.996        1174.625          35.000  
G13  24394997.570   128196559.805       -2393.367          42.000    24394996.852    99893421.750       -1864.965          30.000  
G06  21122297.359   110998427.297       -1616.191          50.000    21122296.984    86492276.695       -1259.375          43.000  
G07  21868858.516   114921624.375        1827.711          50.000    21868856.891    89549311.684        1424.188          43.000  
G19  20421382.875   107315090.273         178.824          51.000    20421379.391    83622128.832         139.344          47.000  
G11  23649001.055   124276341.746        3694.750          46.000    23648999.312    96838710.137        2879.023          35.000  
G16  22493380.805   118203503.789       -2091.609          48.000    22493379.688    92106612.730       -1629.828          39.000  
G08  24718260.453   129895345.340        3591.996          40.000    24718260.203   101217131.145        2798.957          35.000  
S29  37175526.672   197915721.031           4.992          45.000  
S37  37214027.023   198118062.426           3.375          43.000  
R14  19273564.102   102738943.000        -835.129          50.000    19273572.461    79908166.984        -649.547          46.000  
R17  21111875.906   112973906.918        1836.168          46.000    21111877.047    87868595.875        1428.125          44.000  
R13  21824196.859   116539982.250       -4054.926          45.000    21824203.352    90642307.211       -3153.836          43.000  
R23  22664328.773   121238869.121       -3247.367          37.000    22664332.211    94296993.711       -2525.734          33.000  
R15  21359045.844   114136266.031        3207.293          46.000    21359051.477    88772678.023        2494.559          42.000  
> 2009 12 18 23 07 12.0000000  0 16                     
G03  20216539.023   106238639.480       -1144.074          51.000    20216537.914    82783347.719        -891.492          44.000  
G22  24670697.477   129645395.707        1507.391          42.000    24670695.164   101022385.355        1174.590          35.000  
G13  24395452.961   128198953.020       -2393.480          42.000    24395452.320    99895286.582       -1865.055          33.000  
G06  21122604.945   111000043.668       -1616.496          50.000    21122604.570    86493536.207       -1259.605          43.000  
G07  21868510.758   114919796.930        1827.195          50.000    21868509.133    89547887.699        1423.785          43.000  
G19  20421348.898   107314911.707         178.453          51.000    20421345.406    83621989.691         139.051          47.000  
G11  23648297.977   124272647.059        3694.609          46.000    23648296.227    96835831.156        2878.914          34.000  
G16  22493778.852   118205595.535       -2091.754          48.000    22493777.742    92108242.664       -1629.941          40.000  
G08  24717576.875   129891753.223        3591.746          40.000    24717576.625   101214332.090        2798.762          32.000  
S29  37175525.766   197915716.094           4.637          45.000  
S37  37214026.422   198118059.230           2.980          43.000  
R14  19273720.852   102739778.527        -835.914          50.000    19273729.203    79908816.836        -650.160          46.000  
R17  21111532.789   112972070.789        1836.020          46.000    21111533.922    87867167.777        1428.012          44.000  
R13  21824956.250   116544037.422       -4055.422          45.000    21824962.781    90645461.230       -3154.223          44.000  
R23  22664935.922   121242117.039       -3247.461          37.000    22664939.391    94299519.863       -2525.809          33.000  
R15  21358445.703   114133059.090        3206.820          45.000    21358451.328    88770183.734        2494.191          42.000  
> 2009 12 18 23 07 13.0000000  0 16                     
G03  20216756.758   106239783.672       -1144.352          51.000    20216755.633    82784239.297        -891.707          44.000  
G22  24670410.680   129643888.539        1506.703          43.000    24670408.367   101021210.930        1174.051          34.000  
G13  24395908.398   128201346.422       -2393.566          42.000    24395907.773    99897151.551       -1865.125          34.000  
G06  21122912.555   111001660.168       -1616.574          50.000    21122912.188    86494795.820       -1259.668          43.000  
G07  21868163.109   114917970.020        1826.645          50.000    21868161.492    89546464.137        1423.355          43.000  
G19  20421314.984   107314733.484         178.000          51.000    20421311.484    83621850.812         138.699          47.000  
G11  23647594.922   124268952.480        3694.418          46.000    23647593.164    96832952.266        2878.762          33.000  
G16  22494176.930   118207687.496       -2092.105          48.000    22494175.828    92109872.766       -1630.215          40.000  
G08  24716893.375   129888161.285        3591.980          40.000    24716893.141   101211533.184        2798.945          34.000  
S29  37175524.828   197915711.262           5.129          45.000  
S37  37214025.836   198118056.090           3.203          44.000  
R14  19273877.742   102740614.914        -836.824          50.000    19273886.109    79909467.355        -650.867          46.000  
R17  21111189.711   112970235.051        1835.707          46.000    21111190.867    87865739.977        1427.770          44.000  
R13  21825715.695   116548092.926       -4055.609          45.000    21825722.258    90648615.504       -3154.367          44.000  
R23  22665543.094   121245364.930       -3247.844          37.000    22665546.555    94302045.996       -2526.203          33.000  
R15  21357845.664   114129852.617        3206.230          45.000    21357851.266    88767689.812        2493.730          42.000  
> 2009 12 18 23 07 14.0000000  0 16                     
G03  20216974.562   106240928.211       -1144.672          51.000    20216973.430    82785131.148        -891.957          44.000  
G22  24670123.914   129642381.695        1506.816          42.000    24670121.602   101020036.773        1174.145          34.000  
G13  24396363.883   128203740.086       -2393.664          42.000    24396363.273    99899016.754       -1865.195          34.000  
G06  21123220.195   111003276.883       -1616.770          50.000    21123219.852    86496055.598       -1259.820          43.000  
G07  21867815.578   114916143.730        1825.992          50.000    21867813.961    89545041.055        1422.848          43.000  
G19  20421281.156   107314555.680         177.625          51.000    20421277.648    83621712.266         138.406          47.000  
G11  23646891.914   124265258.113        3694.371          46.000    23646890.148    96830073.547        2878.730          35.000  
G16  22494575.078   118209779.746       -2092.340          48.000    22494573.961    92111503.094       -1630.398          39.000  
G08  24716209.906   129884569.609        3591.375          40.000    24716209.664   101208734.449        2798.465          27.000  
S29  37175523.781   197915705.926           5.211          45.000  
S37  37214025.273   198118053.129           3.043          43.000  
R14  19274034.820   102741452.254        -837.754          50.000    19274043.195    79910118.621        -651.590          46.000  
R17  21110846.727   112968399.738        1834.996          46.000    21110847.898    87864312.516        1427.215          44.000  
R13  21826475.227   116552148.848       -4055.988          45.000    21826481.812    90651770.109       -3154.660          44.000  
R23  22666150.250   121248612.820       -3247.949          38.000    22666153.711    94304572.129       -2526.191          33.000  
R15  21357245.719   114126646.707        3205.641          45.000    21357251.297    88765196.328        2493.277          42.000  
> 2009 12 18 23 07 15.0000000  0 16                     
G03  20217192.414   106242073.047       -1144.926          51.000    20217191.281    82786023.227        -892.152          44.000  
G22  24669837.234   129640875.156        1506.695          43.000    24669834.891   101018862.852        1174.047          35.000  
G13  24396819.414   128206133.957       -2394.164          42.000    24396818.805    99900882.113       -1865.586          33.000  
G06  21123527.875   111004893.727       -1616.828          50.000    21123527.531    86497315.469       -1259.871          43.000  
G07  21867468.141   114914317.980        1825.605          50.000    21867466.539    89543618.391        1422.547          43.000  
G19  20421247.398   107314378.234         177.363          51.000    20421243.875    83621573.996         138.207          47.000  
G11  23646188.922   124261563.859        3694.281          45.000    23646187.133    96827194.902        2878.656          34.000  
G16  22494973.266   118211872.219       -2092.473          48.000    22494972.133    92113133.590       -1630.500          40.000  
G08  24715526.430   129880978.102        3591.723          39.000    24715526.156   101205935.875        2798.742          35.000  
S29  37175522.773   197915700.633           5.426          45.000  
S37  37214024.727   198118050.230           2.930          43.000  
R14  19274192.070   102742290.465        -838.637          50.000    19274200.445    79910770.562        -652.277          46.000  
R17  21110503.820   112966564.793        1834.883          46.000    21110504.992    87862885.336        1427.129          44.000  
R13  21827234.844   116556205.141       -4056.570          45.000    21827241.430    90654925.004       -3155.113          44.000  
R23  22666757.375   121251860.680       -3248.020          38.000    22666760.875    94307098.242       -2526.242          33.000  
R15  21356645.852   114123441.293        3205.285          45.000    21356651.422    88762703.230        2493.000          42.000  
> 2009 12 18 23 07 16.0000000  0 16                     
G03  20217410.336   106243218.227       -1145.336          51.000    20217409.203    82786915.574        -892.473          44.000  
G22  24669550.625   129639369.000        1506.176          43.000    24669548.312   101017689.223        1173.645          34.000  
G13  24397275.000   128208528.074       -2394.469          42.000    24397274.406    99902747.656       -1865.824          32.000  
G06  21123835.602   111006510.836       -1617.258          50.000    21123835.242    86498575.551       -1260.203          43.000  
G07  21867120.820   114912492.863        1824.668          49.000    21867119.219    89542196.219        1421.816          43.000  
G19  20421213.711   107314201.215         176.734          51.000    20421210.188    83621436.062         137.715          47.000  
G11  23645485.969   124257869.828        3693.836          46.000    23645484.203    96824316.438        2878.312          35.000  
G16  22495371.508   118213964.992       -2092.910          48.000    22495370.367    92114764.328       -1630.840          39.000  
G08  24714843.023   129877386.836        3591.371          39.000    24714842.836   101203137.469        2798.465          32.000  
S29  37175521.766   197915695.340           5.691          45.000  
S37  37214024.266   198118047.559           2.645          44.000  
R14  19274349.492   102743129.637        -839.688          50.000    19274357.867    79911423.250        -653.094          46.000  
R17  21110161.008   112964730.312        1834.305          46.000    21110162.172    87861458.516        1426.676          44.000  
R13  21827994.539   116560261.863       -4057.113          45.000    21828001.133    90658080.230       -3155.535          44.000  
R23  22667364.539   121255108.477       -3247.910          37.000    22667368.016    94309624.309       -2526.156          33.000  
R15  21356046.102   114120236.453        3204.539          45.000    21356051.656    88760210.586        2492.418          42.000  
> 2009 12 18 23 07 17.0000000  0 16                     
G03  20217628.383   106244364.023       -1146.066          51.000    20217627.242    82787808.402        -893.043          44.000  
G22  24669264.109   129637863.430        1505.020          42.000    24669261.789   101016516.059        1172.742          31.000  
G13  24397730.680   128210922.730       -2394.859          42.000    24397730.094    99904613.621       -1866.129          31.000  
G06  21124143.422   111008128.438       -1617.887          50.000    21124143.062    86499836.023       -1260.695          43.000  
G07  21866773.672   114910668.602        1823.895          49.000    21866772.070    89540774.723        1421.215          43.000  
G19  20421180.156   107314024.863         175.996          51.000    20421176.625    83621298.645         137.141          47.000  
G11  23644783.094   124254176.230        3693.430          45.000    23644781.320    96821438.316        2877.996          32.000  
G16  22495769.867   118216058.316       -2093.602          48.000    22495768.695    92116395.488       -1631.379          39.000  
G08  24714159.727   129873796.102        3590.531          39.000    24714159.477   101200339.492        2797.809          36.000  
S29  37175520.805   197915690.156           4.566          44.000  
S37  37214023.781   198118045.020           2.324          43.000  
R14  19274507.156   102743970.008        -840.906          50.000    19274515.516    79912076.871        -654.039          46.000  
R17  21109818.328   112962896.539        1833.430          46.000    21109819.492    87860032.246        1425.996          44.000  
R13  21828754.328   116564319.266       -4057.820          45.000    21828760.961    90661235.988       -3156.086          44.000  
R23  22667971.742   121258356.621       -3247.715          37.000    22667975.211    94312150.652       -2526.004          33.000  
R15  21355446.516   114117032.473        3203.688          46.000    21355452.055    88757718.598        2491.758          43.000  
> 2009 12 18 23 07 18.0000000  0 16                     
G03  20217846.516   106245510.289       -1146.316          51.000    20217845.375    82788701.594        -893.238          44.000  
G22  24668977.695   129636358.363        1504.879          43.000    24668975.406   101015343.273        1172.629          33.000  
G13  24398186.438   128213317.758       -2394.922          43.000    24398185.812    99906479.879       -1866.172          33.000  
G06  21124451.312   111009746.383       -1618.043          50.000    21124450.945    86501096.758       -1260.816          43.000  
G07  21866426.664   114908845.086        1823.266          49.000    21866425.062    89539353.805        1420.727          43.000  
G19  20421146.703   107313849.059         175.605          51.000    20421143.172    83621161.652         136.836          47.000  
G11  23644080.258   124250482.953        3693.230          45.000    23644078.492    96818560.438        2877.844          35.000  
G16  22496168.305   118218152.051       -2093.945          48.000    22496167.109    92118026.973       -1631.645          39.000  
G08  24713476.484   129870205.727        3590.176          39.000    24713476.211   101197541.816        2797.539          36.000  
S29  37175519.953   197915685.672           4.883          45.000  
S37  37214023.305   198118042.629           2.617          43.000  
R14  19274665.008   102744811.441        -841.867          50.000    19274673.375    79912731.324        -654.789          46.000  
R17  21109475.727   112961063.316        1833.145          46.000    21109476.914    87858606.410        1425.773          44.000  
R13  21829514.273   116568377.215       -4058.051          45.000    21829520.898    90664392.164       -3156.266          44.000  
R23  22668579.008   121261604.879       -3248.117          37.000    22668582.445    94314677.070       -2526.316          33.000  
R15  21354847.078   114113829.168        3203.105          46.000    21354852.602    88755227.137        2491.301          43.000  
> 2009 12 18 23 07 19.0000000  0 16                     
G03  20218064.703   106246656.852       -1146.691          51.000    20218063.555    82789595.020        -893.531          44.000  
G22  24668691.320   129634853.559        1505.055          42.000    24668689.023   101014170.695        1172.766          33.000  
G13  24398642.234   128215713.012       -2395.457          43.000    24398641.641    99908346.316       -1866.590          32.000  
G06  21124759.234   111011364.531       -1618.098          50.000    21124758.852    86502357.656       -1260.855          43.000  
G07  21866079.758   114907022.105        1822.785          50.000    21866078.156    89537933.305        1420.352          43.000  
G19  20421113.328   107313673.617         175.316          51.000    20421109.781    83621024.945         136.609          47.000  
G11  23643377.461   124246789.824        3692.965          45.000    23643375.734    96815682.676        2877.637          35.000  
G16  22496566.773   118220246.016       -2093.957          48.000    22496565.562    92119658.633       -1631.660          39.000  
G08  24712793.297   129866615.535        3589.930          40.000    24712793.039   101194744.273        2797.348          33.000  
S29  37175519.031   197915680.949           4.746          45.000  
S37  37214022.742   198118039.648           3.246          44.000  
R14  19274823.023   102745653.777        -842.652          50.000    19274831.398    79913386.469        -655.398          46.000  
R17  21109133.250   112959230.535        1832.633          46.000    21109134.422    87857180.910        1425.379          44.000  
R13  21830274.281   116572435.543       -4058.434          45.000    21830280.898    90667548.641       -3156.562          44.000  
R23  22669186.250   121264853.086       -3247.969          37.000    22669189.656    94317203.449       -2526.203          33.000  
R15  21354247.734   114110626.402        3202.664          46.000    21354253.250    88752736.094        2490.957          43.000  
> 2009 12 18 23 07 20.0000000  0 16                     
G03  20218282.898   106247803.492       -1146.688          51.000    20218281.758    82790488.508        -893.527          43.000  
G22  24668404.961   129633348.867        1504.336          42.000    24668402.758   101012998.207        1172.207          35.000  
G13  24399098.023   128218108.238       -2395.367          43.000    24399097.406    99910212.715       -1866.523          31.000  
G06  21125067.148   111012982.656       -1618.148          50.000    21125066.766    86503618.535       -1260.898          43.000  
G07  21865732.906   114905199.465        1822.355          50.000    21865731.320    89536513.066        1420.016          43.000  
G19  20421079.977   107313498.328         175.113          51.000    20421076.422    83620888.359         136.453          47.000  
G11  23642674.648   124243096.613        3693.328          45.000    23642672.961    96812804.848        2877.914          34.000  
G16  22496965.250   118222340.008       -2094.066          48.000    22496964.016    92121290.312       -1631.738          39.000  
G08  24712110.125   129863025.328        3590.086          40.000    24712109.945   101191946.711        2797.469          35.000  
S29  37175518.125   197915676.066           4.973          45.000  
S37  37214022.117   198118036.293           3.328          44.000  
R14  19274981.172   102746496.781        -843.453          50.000    19274989.539    79914042.137        -656.023          46.000  
R17  21108790.758   112957397.914        1832.383          46.000    21108791.953    87855755.539        1425.188          44.000  
R13  21831034.273   116576493.984       -4058.523          45.000    21831040.922    90670705.203       -3156.633          43.000  
R23  22669793.422   121268101.004       -3248.016          38.000    22669796.836    94319729.609       -2526.238          33.000  
R15  21353648.445   114107423.957        3202.336          46.000    21353653.977    88750245.301        2490.703          43.000  
> 2009 12 18 23 07 21.0000000  0 16                     
G03  20218501.141   106248950.324       -1146.809          51.000    20218499.992    82791382.145        -893.621          44.000  
G22  24668118.648   129631844.332        1504.520          42.000    24668116.469   101011825.848        1172.352          32.000  
G13  24399553.852   128220503.570       -2395.234          43.000    24399553.227    99912079.207       -1866.422          31.000  
G06  21125375.078   111014600.855       -1618.152          50.000    21125374.703    86504879.469       -1260.902          43.000  
G07  21865386.141   114903377.281        1821.961          49.000    21865384.570    89535093.184        1419.711          43.000  
G19  20421046.672   107313323.293         175.062          51.000    20421043.109    83620751.969         136.414          47.000  
G11  23641971.844   124239403.438        3693.027          44.000    23641970.148    96809927.055        2877.684          34.000  
G16  22497363.758   118224434.113       -2094.074          48.000    22497362.500    92122922.082       -1631.750          39.000  
G08  24711426.969   129859435.199        3590.137          40.000    24711426.789   101189149.207        2797.508          33.000  
S29  37175517.203   197915671.211           4.707          45.000  
S37  37214021.484   198118032.977           3.102          44.000  
R14  19275139.477   102747340.566        -844.078          49.000    19275147.828    79914698.418        -656.508          46.000  
R17  21108448.352   112955565.582        1832.246          46.000    21108449.539    87854330.395        1425.082          44.000  
R13  21831794.359   116580552.688       -4058.641          45.000    21831800.984    90673861.969       -3156.723          43.000  
R23  22670400.586   121271348.773       -3247.445          37.000    22670403.969    94322255.648       -2525.793          33.000  
R15  21353049.219   114104221.930        3201.926          46.000    21353054.781    88747754.836        2490.383          43.000  
> 2009 12 18 23 07 22.0000000  0 16                     
G03  20218719.398   106250097.289       -1147.293          51.000    20218718.258    82792275.883        -894.000          44.000  
G22  24667832.359   129630339.965        1503.672          43.000    24667830.203   101010653.613        1171.691          32.000  
G13  24400009.672   128222898.941       -2395.617          43.000    24400009.117    99913945.734       -1866.715          31.000  
G06  21125683.016   111016219.094       -1618.406          50.000    21125682.641    86506140.430       -1261.102          43.000  
G07  21865039.461   114901555.488        1821.488          50.000    21865037.898    89533673.598        1419.340          43.000  
G19  20421013.406   107313148.465         174.508          51.000    20421009.836    83620615.738         135.980          47.000  
G11  23641269.016   124235710.230        3692.965          44.000    23641267.344    96807049.242        2877.637          35.000  
G16  22497762.273   118226528.301       -2094.426          49.000    22497761.008    92124553.922       -1632.020          39.000  
G08  24710743.805   129855845.137        3590.125          40.000    24710743.594   101186351.754        2797.500          29.000  
S29  37175516.172   197915665.797           5.195          45.000  
S37  37214020.828   198118029.578           3.219          44.000  
R14  19275297.914   102748185.094        -845.125          50.000    19275306.250    79915355.273        -657.324          46.000  
R17  21108105.984   112953733.465        1831.500          46.000    21108107.172    87852905.418        1424.500          44.000  
R13  21832554.477   116584611.582       -4059.113          46.000    21832561.086    90677018.887       -3157.094          43.000  
R23  22671007.656   121274596.359       -3247.805          37.000    22671011.055    94324781.547       -2526.074          33.000  
R15  21352450.078   114101020.293        3201.156          46.000    21352455.672    88745264.672        2489.785          43.000  
> 2009 12 18 23 07 23.0000000  0 16                     
G03  20218937.719   106251244.508       -1147.219          51.000    20218936.562    82793169.816        -893.941          44.000  
G22  24667546.117   129628835.832        1504.207          43.000    24667543.977   101009481.555        1172.105          35.000  
G13  24400465.516   128225294.492       -2395.332          43.000    24400465.000    99915812.395       -1866.496          32.000  
G06  21125990.977   111017837.406       -1618.297          50.000    21125990.586    86507401.453       -1261.016          43.000  
G07  21864692.875   114899734.230        1821.207          49.000    21864691.320    89532254.434        1419.117          43.000  
G19  20420980.211   107312973.969         174.477          51.000    20420976.633    83620479.770         135.957          47.000  
G11  23640566.211   124232017.141        3693.242          44.000    23640564.594    96804171.520        2877.855          35.000  
G16  22498160.836   118228622.691       -2094.352          48.000    22498159.555    92126185.910       -1631.961          39.000  
G08  24710060.656   129852255.211        3589.773          40.000    24710060.398   101183554.406        2797.223          31.000  
S29  37175515.164   197915660.574           5.516          45.000  
S37  37214020.156   198118026.090           3.578          43.000  
R14  19275456.492   102749030.449        -845.520          50.000    19275464.836    79916012.770        -657.629          46.000  
R17  21107763.664   112951901.691        1831.918          46.000    21107764.859    87851480.699        1424.820          44.000  
R13  21833314.633   116588670.785       -4059.477          46.000    21833321.250    90680176.039       -3157.375          43.000  
R23  22671614.758   121277843.863       -3247.379          37.000    22671618.117    94327307.375       -2525.547          33.000  
R15  21351851.016   114097819.113        3201.168          45.000    21351856.641    88742774.863        2489.793          43.000  
> 2009 12 18 23 07 24.0000000  0 16                     
G03  20219156.070   106252391.961       -1147.590          51.000    20219154.914    82794063.938        -894.227          44.000  
G22  24667259.922   129627331.945        1503.805          43.000    24667257.812   101008309.699        1171.797          33.000  
G13  24400921.398   128227690.176       -2395.680          43.000    24400920.930    99917679.168       -1866.762          32.000  
G06  21126298.953   111019455.848       -1618.543          50.000    21126298.555    86508662.574       -1261.207          43.000  
G07  21864346.391   114897913.473        1820.445          49.000    21864344.844    89530835.664        1418.523          43.000  
G19  20420947.070   107312799.773         174.016          51.000    20420943.484    83620344.035         135.598          46.000  
G11  23639863.422   124228324.133        3692.773          44.000    23639861.820    96801293.852        2877.484          35.000  
G16  22498559.422   118230717.250       -2094.617          48.000    22498558.117    92127818.039       -1632.168          39.000  
G08  24709377.555   129848665.422        3589.316          40.000    24709377.328   101180757.172        2796.871          35.000  
S29  37175514.141   197915655.375           5.117          45.000  
S37  37214019.492   198118022.715           3.156          43.000  
R14  19275615.234   102749876.652        -846.574          50.000    19275623.586    79916670.926        -658.449          46.000  
R17  21107421.430   112950070.234        1831.340          46.000    21107422.602    87850056.234        1424.371          44.000  
R13  21834074.844   116592730.301       -4059.828          46.000    21834081.461    90683333.445       -3157.648          43.000  
R23  22672221.797   121281091.215       -3247.652          37.000    22672225.156    94329833.094       -2525.957          33.000  
R15  21351252.039   114094618.418        3200.391          45.000    21351257.703    88740285.434        2489.188          43.000  
> 2009 12 18 23 07 25.0000000  0 16                     
G03  20219374.508   106253539.824       -1148.074          51.000    20219373.352    82794958.379        -894.602          44.000  
G22  24666973.828   129625828.492        1503.453          43.000    24666971.719   101007138.184        1171.523          34.000  
G13  24401377.352   128230086.203       -2396.379          42.000    24401376.906    99919546.191       -1867.312          33.000  
G06  21126606.984   111021074.570       -1618.770          50.000    21126606.578    86509923.918       -1261.383          43.000  
G07  21864000.039   114896093.391        1819.734          50.000    21863998.492    89529417.422        1417.977          43.000  
G19  20420914.016   107312626.059         173.484          51.000    20420910.422    83620208.672         135.184          47.000  
G11  23639160.680   124224631.367        3692.770          44.000    23639159.094    96798416.367        2877.484          32.000  
G16  22498958.078   118232812.176       -2095.137          49.000    22498956.750    92129450.449       -1632.574          37.000  
G08  24708694.500   129845075.957        3589.141          41.000    24708694.266   101177960.188        2796.734          32.000  
S29  37175513.133   197915650.262           5.285          45.000  
S37  37214018.867   198118019.652           2.699          43.000  
R14  19275774.188   102750723.863        -847.738          50.000    19275782.516    79917329.867        -659.355          46.000  
R17  21107079.273   112948239.305        1830.750          46.000    21107080.445    87848632.176        1423.914          44.000  
R13  21834835.156   116596790.324       -4060.285          46.000    21834841.758    90686491.242       -3158.000          43.000  
R23  22672828.891   121284338.680       -3247.395          37.000    22672832.234    94332358.902       -2525.754          32.000  
R15  21350653.195   114091418.359        3199.902          45.000    21350658.875    88737796.492        2488.809          43.000  
> 2009 12 18 23 07 26.0000000  0 16                     
G03  20219593.016   106254688.066       -1148.160          51.000    20219591.859    82795853.117        -894.672          44.000  
G22  24666687.797   129624325.418        1503.348          43.000    24666685.719   101005966.965        1171.441          33.000  
G13  24401833.359   128232482.512       -2396.324          42.000    24401832.867    99921413.434       -1867.270          33.000  
G06  21126915.047   111022693.516       -1618.867          50.000    21126914.648    86511185.434       -1261.457          43.000  
G07  21863653.797   114894273.957        1819.316          49.000    21863652.273    89527999.684        1417.648          43.000  
G19  20420881.047   107312452.797         173.305          51.000    20420877.453    83620073.664         135.039          47.000  
G11  23638457.992   124220938.852        3692.656          44.000    23638456.422    96795539.086        2877.395          29.000  
G16  22499356.805   118234907.410       -2095.383          48.000    22499355.438    92131083.102       -1632.766          39.000  
G08  24708011.508   129841486.754        3589.406          40.000    24708011.297   101175163.410        2796.941          23.000  
S29  37175512.070   197915644.879           5.895          45.000  
S37  37214018.312   198118016.766           3.277          43.000  
R14  19275933.289   102751572.039        -848.465          50.000    19275941.633    79917989.559        -659.922          46.000  
R17  21106737.195   112946408.820        1830.465          46.000    21106738.375    87847208.473        1423.695          44.000  
R13  21835595.555   116600850.809       -4060.477          46.000    21835602.148    90689649.402       -3158.148          43.000  
R23  22673435.984   121287586.219       -3247.516          37.000    22673439.320    94334884.770       -2525.844          33.000  
R15  21350054.445   114088218.914        3199.461          45.000    21350060.156    88735308.039        2488.465          43.000  
> 2009 12 18 23 07 27.0000000  0 16                     
G03  20219811.586   106255836.680       -1148.738          51.000    20219810.438    82796748.133        -895.121          44.000  
G22  24666401.836   129622822.715        1502.730          43.000    24666399.805   101004796.035        1170.957          33.000  
G13  24402289.406   128234879.090       -2396.668          42.000    24402288.938    99923280.910       -1867.539          34.000  
G06  21127223.172   111024312.746       -1619.332          50.000    21127222.773    86512447.172       -1261.820          43.000  
G07  21863307.688   114892455.152        1818.512          49.000    21863306.172    89526582.430        1417.020          43.000  
G19  20420848.164   107312279.973         172.711          51.000    20420844.562    83619938.996         134.574          47.000  
G11  23637755.336   124217246.531        3692.340          44.000    23637753.750    96792661.957        2877.148          36.000  
G16  22499755.578   118237002.945       -2095.602          48.000    22499754.219    92132715.992       -1632.938          38.000  
G08  24707328.570   129837897.824        3588.645          40.000    24707328.445   101172366.859        2796.352          32.000  
S29  37175510.992   197915639.426           5.379          45.000  
S37  37214017.758   198118013.855           3.129          43.000  
R14  19276092.594   102752421.188        -849.578          50.000    19276100.930    79918650.012        -660.785          46.000  
R17  21106395.203   112944578.816        1829.883          46.000    21106396.391    87845785.137        1423.242          43.000  
R13  21836356.047   116604911.719       -4061.070          45.000    21836362.609    90692807.891       -3158.609          43.000  
R23  22674043.039   121290833.773       -3247.215          37.000    22674046.406    94337410.652       -2525.613          33.000  
R15  21349455.820   114085020.070        3198.617          45.000    21349461.539    88732820.055        2487.812          43.000  
> 2009 12 18 23 07 28.0000000  0 16                     
G03  20220030.234   106256985.699       -1149.227          51.000    20220029.094    82797643.477        -895.500          44.000  
G22  24666115.969   129621320.430        1501.945          43.000    24666113.961   101003625.422        1170.348          36.000  
G13  24402745.531   128237275.980       -2397.020          42.000    24402745.055    99925148.613       -1867.812          32.000  
G06  21127531.367   111025932.297       -1619.816          50.000    21127530.961    86513709.160       -1262.199          43.000  
G07  21862961.703   114890637.016        1817.730          49.000    21862960.203    89525165.699        1416.410          43.000  
G19  20420815.375   107312107.629         172.039          51.000    20420811.773    83619804.699         134.051          47.000  
G11  23637052.734   124213554.484        3691.797          44.000    23637051.125    96789785.043        2876.727          34.000  
G16  22500154.414   118239098.836       -2096.098          48.000    22500153.031    92134349.148       -1633.324          39.000  
