     3.04           OBSERVATION DATA    M: Mixed            RINEX VERSION / TYPE
CONVBIN demo5 b34f.1                    20220527 015938 UTC PGM / RUN BY / DATE 
log: /home/igor/git/flutter_rtklib/test/data/rcvraw/testglo.COMMENT             
format: RTCM 3                                              COMMENT             
format: RTCM 3                                              COMMENT             
log: /home/igor/git/flutter_rtklib/test/data/rcvraw/testglo.COMMENT             
0000                                                        MARKER NAME         
                                                            MARKER NUMBER       
                                                            MARKER TYPE         
                                                            OBSERVER / AGENCY   
                                                            REC # / TYPE / VERS 
                                                            ANT # / TYPE        
 -3869297.5138  3436571.3345  3717369.3757                  APPROX POSITION XYZ 
        0.0000        0.0000        0.0000                  ANTENNA: DELTA H/E/N
G    6 C1C L1C S1C C2W L2W S2W                              SYS / # / OBS TYPES 
R    6 C1C L1C S1C C2C L2C S2C                              SYS / # / OBS TYPES 
S    3 C1C L1C S1C                                          SYS / # / OBS TYPES 
  2009    12    18    23    07   00.0000000     GPS         TIME OF FIRST OBS   
  2009    12    18    23    10   05.0000000     GPS         TIME OF LAST OBS    
G L1C                                                       SYS / PHASE SHIFT   
G L2W  0.00000                                              SYS / PHASE SHIFT   
R L1C                                                       SYS / PHASE SHIFT   
R L2C                                                       SYS / PHASE SHIFT   
S L1C                                                       SYS / PHASE SHIFT   
  6 R08  6 R13 -2 R14 -7 R15  0 R17  4 R23  3               GLONASS SLOT / FRQ #
 C1C    0.000 C1P    0.000 C2C    0.000 C2P    0.000        GLONASS COD/PHS/BIS 
                                                            END OF HEADER       
> 2009 12 18 23 07 00.0000000  0 17                     
G03  20213931.126   106224925.3811         50.000    20213930.686    82772669.6791         42.250  
G22  24674143.136   129663497.5121         43.250    24674142.116   101036491.4041         35.250  
G07  21872691.096   114941768.4411         48.500    21872690.096    89565014.2791         41.750  
G06  21118916.980   110980657.8691         49.000    21118916.600    86478434.7481         41.250  
G13  24389990.178   128170263.2011         41.000    24389990.218    99872931.6211         31.000  
G19  20421761.464   107317080.9551         49.750    20421758.664    83623698.4831         45.500  
G11  23656735.484   124316983.9651         44.500    23656735.464    96870376.6291         31.500  
G16  22489005.270   118180519.3801         47.750    22489004.490    92088716.2911         38.500  
G08  24725783.236   129934868.0481         43.000    24725782.436   101247948.7111         33.750  
S29  37175538.352   195358771.5861         44.000  
S37  37214033.392   195561065.1041         41.750  
R14  19271851.392   102729811.6971         49.000    19271859.552    79900966.2851         43.000  
R17  21115654.940   112994134.1251         44.750    21115656.260    87884326.2691         41.250  
R13  21815847.816   116495409.3601         44.250    21815853.636    90607541.7561         41.000  
R23  22657649.972   121203148.6361         38.250    22657653.892    94269116.6651         33.750  
R15  21365654.620   114171579.6121         43.750    21365660.060    88800118.1061         39.750  
R08  23736508.824   127107926.6051         33.250    23736508.824    98861720.9661                 
> 2009 12 18 23 07 01.0000000  0 17                     
G03  20214148.146   106226065.803          50.000    20214147.706    82773558.319          42.500  
G22  24673855.596   129661986.563          43.750    24673854.516   101035314.039          34.000  
G07  21872342.136   114939934.646          48.500    21872341.136    89563585.350          41.250  
G06  21119224.160   110982272.011          49.000    21119223.780    86479692.521          41.500  
G13  24390445.118   128172653.892          41.250    24390445.098    99874794.494          31.750  
G19  20421726.664   107316898.146          49.750    20421723.864    83623556.034          45.750  
G11  23656032.084   124313287.510          44.750    23656032.024    96867496.276          33.000  
G16  22489402.790   118182608.325          47.750    22489402.010    92090344.039          38.750  
G08  24725099.236   129931273.620          42.750    24725098.496   101245147.853          33.750  
S29  37175537.312   195358766.124          44.000  
S37  37214032.732   195561061.599          41.750  
R14  19272006.252   102730637.199          48.750    19272014.412    79901608.344          43.000  
R17  21115310.940   112992293.472          44.750    21115312.280    87882894.648          41.000  
R13  21816606.416   116499460.301          44.250    21816612.276    90610692.483          40.750  
R23  22658257.212   121206396.830          37.750    22658261.092    94271643.038          34.000  
R15  21365053.380   114168366.709          43.500    21365058.820    88797619.181          40.000  
R08  23736249.604   127106538.906          33.250    23736249.604    98860641.3231                 
> 2009 12 18 23 07 02.0000000  0 17                     
G03  20214365.246   106227206.786          50.000    20214364.806    82774447.393          42.000  
G22  24673568.216   129660476.190          44.000    24673567.136   101034137.113          33.250  
G07  21871993.336   114938101.674          48.750    21871992.356    89562157.063          41.000  
G06  21119531.400   110983886.608          49.250    21119531.020    86480950.648          41.250  
G13  24390900.158   128175045.073          41.500    24390900.138    99876657.755          31.750  
G19  20421691.984   107316715.967          49.750    20421689.184    83623414.075          45.500  
G11  23655328.764   124309591.465          44.750    23655328.644    96864616.241          32.000  
G16  22489800.390   118184697.777          47.750    22489799.610    92091972.185          38.750  
G08  24724415.336   129927679.659          42.750    24724414.576   101242347.362          30.750  
S29  37175536.332   195358761.221          44.000  
S37  37214032.152   195561058.459          42.000  
R14  19272161.332   102731463.879          49.000    19272169.492    79902251.319          43.000  
R17  21114967.080   112990453.499          44.750    21114968.440    87881463.562          41.250  
R13  21817365.156   116503511.893          44.250    21817371.016    90613843.715          41.000  
R23  22658864.472   121209645.227          37.500    22658868.332    94274169.564          34.500  
R15  21364452.280   114165154.605          43.500    21364457.720    88795120.882          40.250  
R08  23735990.644   127105152.147          33.750    23735990.644    98859562.7641                 
> 2009 12 18 23 07 03.0000000  0 17                     
G03  20214582.466   106228348.183          50.000    20214582.026    82775336.793          42.250  
G22  24673280.876   129658966.240          44.000    24673279.776   101032960.524          33.500  
G07  21871644.676   114936269.372          48.750    21871643.696    89560729.295          41.250  
G06  21119838.700   110985501.491          49.250    21119838.320    86482208.997          41.750  
G13  24391355.238   128177436.579          41.500    24391355.198    99878521.268          35.250  
G19  20421657.424   107316534.269          49.750    20421654.624    83623272.496          45.250  
G11  23654625.504   124305895.667          44.750    23654625.384    96861736.390          32.500  
G16  22490198.070   118186787.565          47.500    22490197.290    92093600.596          38.250  
G08  24723731.516   129924086.014          42.750    24723730.696   101239547.127          32.500  
S29  37175535.432   195358756.478          44.000  
S37  37214031.652   195561055.616          41.750  
R14  19272316.612   102732291.547          49.000    19272324.772    79902895.061          43.000  
R17  21114623.340   112988614.042          44.750    21114624.700    87880032.873          41.250  
R13  21818123.976   116507563.957          44.250    21818129.856    90616995.312          41.000  
R23  22659471.732   121212893.736          38.000    22659475.612    94276696.174          34.000  
R15  21363851.300   114161943.102          43.500    21363856.760    88792623.051          40.000  
R08  23735731.884   127103766.084          33.250    23735731.884    98858485.0381                 
> 2009 12 18 23 07 04.0000000  0 17                     
G03  20214799.726   106229489.936          50.000    20214799.286    82776226.473          42.000  
G22  24672993.616   129657456.620          44.000    24672992.476   101031784.191          33.500  
G07  21871296.116   114934437.677          48.750    21871295.136    89559302.002          41.000  
G06  21120146.060   110987116.620          49.250    21120145.700    86483467.537          41.500  
G13  24391810.378   128179828.356          42.000    24391810.318    99880384.982          29.250  
G19  20421622.924   107316352.991          49.750    20421620.144    83623131.241          45.000  
G11  23653922.264   124302200.069          45.000    23653922.104    96858856.701          32.500  
G16  22490595.810   118188877.648          47.750    22490595.030    92095229.231          38.750  
G08  24723047.716   129920492.615          42.750    24723046.836   101236747.085          34.500  
S29  37175534.492   195358751.546          44.000  
S37  37214031.152   195561052.844          42.000  
R14  19272472.072   102733120.162          49.000    19272480.212    79903539.537          43.000  
R17  21114279.680   112986774.997          44.750    21114281.060    87878602.503          41.250  
R13  21818882.856   116511616.457          44.500    21818888.776    90620147.248          41.250  
R23  22660078.992   121216142.215          38.000    22660082.872    94279222.765          34.500  
R15  21363250.380   114158732.211          43.750    21363255.900    88790125.695          40.000  
R08  23735473.264   127102380.792          32.000    23735473.264    98857407.8951                 
> 2009 12 18 23 07 05.0000000  0 17                     
G03  20215017.046   106230632.026          50.000    20215016.606    82777116.413          42.000  
G22  24672706.436   129655947.343          44.250    24672705.236   101030608.127          33.250  
G07  21870947.656   114932606.591          48.750    21870946.696    89557875.180          40.750  
G06  21120453.440   110988731.963          49.250    21120453.060    86484726.252          41.000  
G13  24392265.558   128182220.388          42.000    24392265.458    99882248.887          30.750  
G19  20421588.504   107316172.123          49.750    20421585.724    83622990.307          45.000  
G11  23653219.064   124298504.652          44.750    23653218.844    96855977.147          33.500  
G16  22490993.590   118190968.019          48.000    22490992.810    92096858.088          38.000  
G08  24722363.956   129916899.435          42.500    24722363.056   101233947.196          33.750  
S29  37175533.612   195358746.861          44.000  
S37  37214030.612   195561050.172          42.000  
R14  19272627.692   102733949.715          49.000    19272635.812    79904184.745          42.750  
R17  21113936.100   112984936.428          44.750    21113937.460    87877172.507          41.250  
R13  21819641.836   116515669.349          44.750    21819647.756    90623299.492          41.000  
R23  22660686.272   121219390.719          38.000    22660690.172    94281749.375          34.000  
R15  21362649.620   114155521.881          44.000    21362655.160    88787628.778          40.250  
R08  23735214.664   127100996.150          31.750    23735214.664    98856330.8351                 
> 2009 12 18 23 07 06.0000000  0 17                     
G03  20215234.446   106231774.487          50.000    20215234.006    82778006.640          41.500  
G22  24672419.316   129654438.446          44.250    24672418.096   101029432.355          34.000  
G07  21870599.336   114930776.141          48.500    21870598.376    89556448.851          41.000  
G06  21120760.880   110990347.542          49.250    21120760.500    86485985.143          41.500  
G13  24392720.818   128184612.677          42.250    24392720.698    99884113.029          31.750  
G19  20421554.164   107315991.700          49.750    20421551.384    83622849.715          45.250  
G11  23652515.904   124294809.447          44.750    23652515.644    96853097.775          31.500  
G16  22491391.430   118193058.696          48.000    22491390.650    92098487.181          38.000  
G08  24721680.256   129913306.530          42.500    24721679.376   101231147.524          31.250  
S29  37175532.752   195358742.216          44.250  
S37  37214030.172   195561047.594          41.750  
R14  19272783.492   102734780.232          49.000    19272791.612    79904830.703          43.000  
R17  21113592.600   112983098.320          44.750    21113593.980    87875742.871          41.250  
R13  21820400.896   116519722.676          45.250    21820406.836    90626452.080          41.000  
R23  22661293.512   121222639.234          38.250    22661297.432    94284276.000          34.000  
R15  21362048.960   114152312.166          44.000    21362054.540    88785132.335          40.250  
R08  23734956.224   127099612.251          32.000    23734956.224    98855254.4411                 
> 2009 12 18 23 07 07.0000000  0 17                     
G03  20215451.946   106232917.418          50.000    20215451.506    82778897.240          42.000  
G22  24672132.276   129652930.004          44.250    24672130.996   101028256.931          34.500  
G07  21870251.156   114928946.412          48.500    21870250.196    89555023.088          41.250  
G06  21121068.400   110991963.495          49.250    21121068.000    86487244.325          41.750  
G13  24393176.118   128187005.363          42.250    24393175.938    99885977.459          30.500  
G19  20421519.944   107315811.814          49.750    20421517.164    83622709.547          45.250  
G11  23651812.804   124291114.553          44.750    23651812.524    96850218.645          33.750  
G16  22491789.370   118195149.780          47.750    22491788.570    92100116.597          38.500  
G08  24720996.616   129909713.996          42.500    24720995.716   101228348.147          30.750  
S29  37175531.912   195358737.883          44.250  
S37  37214029.752   195561045.166          42.000  
R14  19272939.492   102735611.821          49.000    19272947.592    79905477.495          43.250  
R17  21113249.220   112981260.760          44.750    21113250.600    87874313.660          41.000  
R13  21821160.056   116523776.554          45.500    21821165.996    90629605.093          41.000  
R23  22661900.872   121225887.890          38.000    22661904.772    94286802.728          34.250  
R15  21361448.440   114149103.142          44.250    21361454.020    88782636.430          40.500  
R08  23734697.944   127098229.165          32.500    23734697.944    98854178.7141                 
> 2009 12 18 23 07 08.0000000  0 17                     
G03  20215669.486   106234060.619          50.000    20215669.046    82779788.044          42.500  
G22  24671845.296   129651421.848          44.000    24671843.956   101027081.743          35.750  
G07  21869903.076   114927117.220          48.500    21869902.116    89553597.738          41.500  
G06  21121375.940   110993579.557          49.250    21121375.520    86488503.600          41.500  
G13  24393631.478   128189398.238          42.000    24393631.278    99887842.044          32.500  
G19  20421485.764   107315632.271          49.750    20421483.004    83622569.642          45.750  
G11  23651109.744   124287419.785          44.750    23651109.424    96847339.599          31.000  
G16  22492187.330   118197241.076          47.750    22492186.530    92101746.182          38.500  
G08  24720313.016   129906121.607          42.500    24720312.096   101225548.878          32.750  
S29  37175531.072   195358733.311          44.000  
S37  37214029.272   195561042.781          42.000  
R14  19273095.652   102736444.269          49.000    19273103.752    79906124.952          43.000  
R17  21112905.880   112979423.561          44.750    21112907.280    87872884.728          41.250  
R13  21821919.296   116527830.784          45.250    21821925.216    90632758.383          40.750  
R23  22662508.172   121229136.434          38.750    22662512.052    94289329.371          34.750  
R15  21360847.980   114145894.605          44.250    21360853.620    88780140.901          40.250  
R08  23734439.804   127096846.634          31.000    23734439.804    98853103.5701                 
> 2009 12 18 23 07 09.0000000  0 17                     
G03  20215887.046   106235203.918          50.250    20215886.606    82780678.928          42.250  
G22  24671558.336   129649913.797          44.250    24671556.936   101025906.644          33.750  
G07  21869555.056   114925288.381          48.250    21869554.116    89552172.673          41.000  
G06  21121683.460   110995195.667          49.250    21121683.040    86489762.905          41.750  
G13  24394086.818   128191791.113          41.750    24394086.678    99889706.620          31.250  
G19  20421451.644   107315452.890          49.750    20421448.884    83622429.861          45.250  
G11  23650406.644   124283724.943          45.000    23650406.324    96844460.503          32.250  
G16  22492585.290   118199332.399          47.750    22492584.470    92103375.783          38.250  
G08  24719629.416   129902529.222          42.000    24719628.536   101222749.622          32.750  
S29  37175530.192   195358728.637          44.250  
S37  37214028.812   195561040.148          42.250  
R14  19273251.952   102737277.409          49.000    19273260.052    79906772.950          42.750  
R17  21112562.580   112977586.563          44.750    21112564.020    87871455.953          41.250  
R13  21822678.556   116531885.174          45.250    21822684.496    90635911.802          40.750  
R23  22663115.432   121232384.809          38.750    22663119.312    94291855.881          34.250  
R15  21360247.620   114142686.377          44.250    21360253.260    88777645.609          40.250  
R08  23734181.744   127095464.595          30.500    23734181.744    98852028.7601                 
> 2009 12 18 23 07 10.0000000  0 17                     
G03  20216104.606   106236347.219          50.250    20216104.166    82781569.812          42.000  
G22  24671271.376   129648405.723          44.250    24671269.956   101024731.525          34.750  
G07  21869207.076   114923459.800          48.500    21869206.136    89550747.806          41.250  
G06  21121990.960   110996811.585          49.250    21121990.540    86491022.060          41.500  
G13  24394542.158   128194183.899          42.000    24394542.058    99891571.128          31.250  
G19  20421417.504   107315273.567          49.750    20421414.744    83622290.129          45.250  
G11  23649703.524   124280029.949          45.250    23649703.204    96841581.279          30.750  
G16  22492983.250   118201423.661          48.000    22492982.430    92105005.342          38.750  
G08  24718945.796   129898936.693          42.000    24718944.896   101219950.257          29.750  
S29  37175529.252   195358723.912          44.250  
S37  37214028.192   195561036.958          42.250  
R14  19273408.352   102738111.125          49.000    19273416.452    79907421.393          42.750  
R17  21112219.300   112975749.642          44.750    21112220.740    87870027.235          41.000  
R13  21823437.796   116535939.604          45.250    21823443.756    90639065.247          40.750  
R23  22663722.592   121235632.772          38.500    22663726.492    94294382.073          33.750  
R15  21359647.280   114139478.377          44.250    21359652.940    88775150.495          40.000  
R08  23733923.684   127094082.805          31.500    23733923.684    98850953.9491                 
> 2009 12 18 23 07 11.0000000  0 17                     
G03  20216322.226   106237490.786          50.250    20216321.786    82782460.903          42.000  
G22  24670984.476   129646897.938          44.500    24670983.056   101023556.630          33.000  
G07  21868859.196   114921631.749          48.500    21868858.276    89549323.357          41.250  
G06  21122298.500   110998427.659          49.250    21122298.080    86492281.335          41.500  
G13  24394997.518   128196576.884          41.750    24394997.398    99893435.772          27.500  
G19  20421383.444   107315094.584          49.750    20421380.684    83622150.663          45.250  
G11  23649000.424   124276335.073          45.250    23649000.144    96838702.157          31.500  
G16  22493381.250   118203515.126          48.000    22493380.430    92106635.055          38.000  
G08  24718262.176   129895344.351          42.000    24718261.356   101217151.027          31.000  
S29  37175528.312   195358719.136          44.250  
S37  37214027.532   195561033.537          42.250  
R14  19273564.912   102738945.702          49.250    19273573.012    79908070.511          43.000  
R17  21111876.100   112973913.083          44.750    21111877.540    87868598.798          41.000  
R13  21824197.136   116539994.360          45.500    21824203.076    90642218.946          40.750  
R23  22664329.732   121238880.653          38.250    22664333.652    94296908.204          33.250  
R15  21359047.020   114136270.861          44.000    21359052.680    88772655.758          40.000  
R08  23733665.824   127092701.687          29.750    23733665.824    98849879.9711                 
> 2009 12 18 23 07 12.0000000  0 17                     
G03  20216539.906   106238634.726          50.250    20216539.466    82783352.285          41.750  
G22  24670697.636   129645390.491          44.250    24670696.236   101022381.984          33.750  
G07  21868511.456   114919804.334          48.500    21868510.536    89547899.395          40.750  
G06  21122606.080   111000044.055          49.250    21122605.660    86493540.863          41.250  
G13  24395452.938   128198970.114          42.000    24395452.758    99895300.624          31.250  
G19  20421349.464   107314916.041          49.750    20421346.724    83622011.541          45.000  
G11  23648297.364   124272640.400          45.500    23648297.024    96835823.184          30.250  
G16  22493779.290   118205606.893          48.000    22493778.470    92108265.003          38.500  
G08  24717578.636   129891752.277          42.250    24717577.796   101214352.018          34.750  
S29  37175527.372   195358714.220          44.500  
S37  37214026.972   195561030.379          42.250  
R14  19273721.652   102739781.254          49.000    19273729.752    79908720.385          43.000  
R17  21111533.020   112972077.005          44.750    21111534.440    87867170.736          41.250  
R13  21824956.536   116544049.567          45.250    21824962.516    90645372.996          40.500  
R23  22664936.912   121242128.616          38.750    22664940.832    94299434.402          34.500  
R15  21358446.900   114133063.945          43.750    21358452.540    88770161.493          39.500  
R08  23733408.004   127091321.193          31.000    23733408.004    98848806.1601                 
> 2009 12 18 23 07 13.0000000  0 17                     
G03  20216757.626   106239778.865          50.250    20216757.186    82784243.818          41.750  
G22  24670410.856   129643883.292          44.500    24670409.456   101021207.541          35.000  
G07  21868163.776   114917977.363          48.500    21868162.856    89546475.783          40.750  
G06  21122913.680   111001660.504          49.250    21122913.260    86494800.436          41.500  
G13  24395908.378   128201363.460          42.000    24395908.118    99897165.556          33.500  
G19  20421315.544   107314737.761          49.750    20421312.804    83621872.620          45.250  
G11  23647594.304   124268945.781          45.250    23647593.904    96832944.269          29.750  
G16  22494177.390   118207698.802          48.000    22494176.570    92109895.062          38.750  
G08  24716895.116   129888160.300          42.500    24716894.356   101211553.061          33.500  
S29  37175526.412   195358709.340          44.500  
S37  37214026.372   195561027.184          42.500  
R14  19273878.572   102740617.593          49.000    19273886.652    79909370.872          43.000  
R17  21111189.960   112970241.190          44.500    21111191.380    87865742.879          41.250  
R13  21825715.996   116548105.014          45.500    21825721.976    90648527.235          40.750  
R23  22665544.092   121245376.443          38.250    22665548.012    94301960.490          34.250  
R15  21357846.840   114129857.420          43.500    21357852.460    88767667.520          40.000  
R08  23733150.164   127089941.334          29.750    23733150.164    98847732.2651                 
> 2009 12 18 23 07 14.0000000  0 16                     
G03  20216975.406   106240923.330          50.250    20216974.966    82785135.613          42.250  
G22  24670124.116   129642376.379          44.500    24670122.696   101020033.329          34.750  
G07  21867816.236   114916150.994          48.500    21867815.316    89545052.641          40.750  
G06  21123221.320   111003277.142          49.250    21123220.900    86496060.154          41.500  
G13  24396363.878   128203757.050          42.000    24396363.518    99899030.681          32.250  
G19  20421281.684   107314559.886          50.000    20421278.944    83621734.016          45.250  
G11  23646891.284   124265251.342          45.250    23646890.864    96830065.491          29.000  
G16  22494575.510   118209790.973          48.000    22494574.690    92111525.325          38.500  
G08  24716211.636   129884568.546          42.250    24716210.836   101208754.283          29.000  
S29  37175525.352   195358703.920          44.250  
S37  37214025.792   195561024.146          42.250  
R14  19274035.632   102741454.848          49.000    19274043.712    79910022.069          42.750  
R17  21110846.980   112968405.811          44.500    21110848.400    87864315.360          41.250  
R13  21826475.516   116552160.862          45.500    21826481.516    90651681.781          41.000  
R23  22666151.212   121248624.249          38.500    22666155.172    94304486.555          34.500  
R15  21357246.880   114126651.440          43.250    21357252.480    88765173.978          39.500  
> 2009 12 18 23 07 15.0000000  0 16                     
G03  20217193.266   106242068.271          50.250    20217192.826    82786027.775          42.500  
G22  24669837.476   129640869.971          44.750    24669836.056   101018859.515          35.750  
G07  21867468.836   114914325.358          48.500    21867467.916    89543630.069          41.000  
G06  21123529.020   111004894.098          49.250    21123528.620    86497320.121          41.750  
G13  24396819.438   128206151.020          42.500    24396819.118    99900896.113          32.000  
G19  20421247.944   107314382.550          50.000    20421245.204    83621595.832          45.250  
G11  23646188.344   124261557.196          45.250    23646187.844    96827186.926          31.500  
G16  22494973.710   118211883.568          48.000    22494972.910    92113155.916          39.250  
G08  24715528.216   129880977.153          41.750    24715527.456   101205955.793          31.250  
S29  37175524.332   195358698.728          44.250  
S37  37214025.312   195561021.351          42.250  
R14  19274192.912   102742293.178          49.000    19274200.972    79910674.105          43.000  
R17  21110504.080   112966570.990          44.750    21110505.500    87862888.280          41.250  
R13  21827235.136   116556217.254          45.250    21827241.156    90654836.753          41.000  
R23  22666758.412   121251872.180          38.500    22666762.372    94307012.726          34.500  
R15  21356647.060   114123446.125          43.500    21356652.620    88762680.955          40.000  
> 2009 12 18 23 07 16.0000000  0 16                     
G03  20217411.186   106243213.427          50.250    20217410.746    82786920.109          41.500  
G22  24669550.876   129639363.770          44.500    24669549.456   101017685.846          35.000  
G07  21867121.516   114912500.208          48.750    21867120.576    89542207.874          40.500  
G06  21123836.740   111006511.167          49.250    21123836.320    86498580.177          40.750  
G13  24397275.018   128208545.117          42.500    24397274.718    99902761.647          33.750  
G19  20421214.244   107314205.497          49.750    20421211.524    83621457.867          44.500  
G11  23645485.384   124257863.116          45.250    23645484.804    96824308.410          32.750  
G16  22495371.970   118213976.309          47.750    22495371.170    92114786.622          38.000  
G08  24714844.816   129877385.846          42.250    24714843.996   101203157.378          32.000  
S29  37175523.312   195358693.407          44.250  
S37  37214024.792   195561018.655          42.250  
R14  19274350.332   102743132.310          49.000    19274358.392    79911326.761          42.500  
R17  21110161.260   112964736.465          44.750    21110162.680    87861461.424          40.750  
R13  21827994.816   116560273.935          45.250    21828000.856    90657991.952          40.500  
R23  22667365.572   121255120.016          38.750    22667369.532    94309538.820          33.000  
R15  21356047.300   114120241.280          43.500    21356052.860    88760188.300          39.000  
> 2009 12 18 23 07 17.0000000  0 16                     
G03  20217629.166   106244358.839          50.250    20217628.706    82787812.631          41.250  
G22  24669264.316   129637857.821          44.500    24669262.896   101016512.381          33.750  
G07  21866774.296   114910675.573          48.750    21866773.356    89540786.081          40.000  
G06  21124144.480   111008128.402          49.250    21124144.060    86499840.360          40.500  
G13  24397730.618   128210939.374          42.750    24397730.318    99904627.304          31.000  
G19  20421180.604   107314028.776          49.750    20421177.864    83621320.162          44.500  
G11  23644782.464   124254169.150          45.250    23644781.864    96821429.994          32.250  
G16  22495770.250   118216069.253          47.750    22495769.430    92116417.489          38.750  
G08  24714161.436   129873794.730          42.250    24714160.636   101200359.106          29.500  
S29  37175522.252   195358687.845          44.250  
S37  37214024.252   195561015.746          42.250  
R14  19274507.912   102743972.295          49.250    19274515.952    79911980.083          42.500  
R17  21109818.500   112962902.308          44.500    21109819.920    87860034.856          40.500  
R13  21828754.556   116564330.963          45.250    21828760.616    90661147.414          40.500  
R23  22667972.752   121258367.749          39.000    22667976.692    94312064.830          33.250  
R15  21355447.680   114117036.879          43.500    21355453.180    88757695.988          39.250  
> 2009 12 18 23 07 18.0000000  0 16                     
G03  20217847.186   106245504.557          50.250    20217846.726    82788705.398          41.250  
G22  24668977.816   129636352.188          44.250    24668976.376   101015339.162          34.000  
G07  21866427.196   114908851.500          48.750    21866426.236    89539364.727          40.500  
G06  21124452.260   111009745.794          49.250    21124451.840    86501100.661          41.250  
G13  24398186.298   128213333.852          43.000    24398186.018    99906493.151          31.500  
G19  20421147.044   107313852.419          49.750    20421144.324    83621182.741          44.750  
G11  23644079.564   124250475.320          44.750    23644078.904    96818551.693          33.750  
G16  22496168.570   118218162.439          47.750    22496167.770    92118048.539          37.750  
G08  24713478.096   129870203.812          42.000    24713477.296   101197560.984          31.000  
S29  37175521.272   195358682.808          44.250  
S37  37214023.672   195561012.782          42.250  
R14  19274665.652   102744813.167          49.000    19274673.692    79912634.095          42.750  
R17  21109475.820   112961068.523          44.250    21109477.240    87858608.581          40.750  
R13  21829514.396   116568388.351          45.500    21829520.456    90664303.156          40.750  
R23  22668579.872   121261615.424          38.750    22668583.812    94314590.802          33.500  
R15  21354848.100   114113833.020          43.750    21354853.600    88755204.100          39.500  
> 2009 12 18 23 07 19.0000000  0 16                     
G03  20218065.266   106246650.578          50.250    20218064.806    82789598.402          41.750  
G22  24668691.356   129634846.865          44.500    24668689.896   101014166.181          35.000  
G07  21866080.196   114907027.984          48.750    21866079.236    89537943.806          41.000  
G06  21124760.080   111011363.409          49.250    21124759.640    86502361.141          41.500  
G13  24398641.978   128215728.556          42.750    24398641.758    99908359.165          30.750  
G19  20421113.564   107313676.439          49.750    20421110.844    83621045.615          45.000  
G11  23643376.704   124246781.650          45.500    23643376.004    96815673.513          31.000  
G16  22496566.930   118220255.880          47.750    22496566.150    92119679.792          38.500  
G08  24712794.836   129866613.094          41.500    24712794.016   101194763.026          33.750  
S29  37175520.252   195358677.547          44.000  
S37  37214023.052   195561009.269          42.500  
R14  19274823.572   102745654.956          49.000    19274831.612    79913288.822          42.750  
R17  21109133.220   112959235.191          44.250    21109134.620    87857182.658          40.750  
R13  21830274.276   116572446.132          45.250    21830280.376    90667459.208          40.500  
R23  22669186.972   121264863.095          38.750    22669190.932    94317116.767          33.750  
R15  21354248.640   114110629.711          44.000    21354254.160    88752712.640          39.500  
> 2009 12 18 23 07 20.0000000  0 16                     
G03  20218283.386   106247796.825          50.250    20218282.926    82790491.579          41.750  
G22  24668404.956   129633341.767          44.250    24668403.496   101012993.384          33.500  
G07  21865733.296   114905204.950          49.000    21865732.316    89536523.255          40.250  
G06  21125067.940   111012981.127          49.250    21125067.500    86503621.701          41.500  
G13  24399097.718   128218123.389          42.750    24399097.458    99910225.266          31.750  
G19  20421080.144   107313500.755          49.750    20421077.424    83620908.721          44.250  
G11  23642673.864   124243088.046          45.750    23642673.084    96812795.378          32.000  
G16  22496965.330   118222349.459          47.750    22496964.530    92121311.150          37.250  
G08  24712111.556   129863022.483          41.750    24712110.796   101191965.152          32.250  
S29  37175519.252   195358672.274          44.000  
S37  37214022.352   195561005.528          42.250  
R14  19274981.652   102746497.561          49.000    19274989.672    79913944.177          42.500  
R17  21108790.660   112957402.174          44.500    21108792.080    87855756.976          40.750  
R13  21831034.216   116576504.186          45.500    21831040.316    90670615.463          40.750  
R23  22669794.112   121268110.620          38.500    22669798.072    94319642.621          33.250  
R15  21353649.260   114107426.852          43.750    21353654.780    88750221.523          39.500  
> 2009 12 18 23 07 21.0000000  0 16                     
G03  20218501.586   106248943.487          50.250    20218501.146    82791385.086          41.500  
G22  24668118.636   129631837.069          44.250    24668117.156   101011820.892          33.500  
G07  21865386.516   114903382.593          49.000    21865385.516    89535103.239          40.250  
G06  21125375.820   111014599.166          49.250    21125375.380    86504882.506          41.250  
G13  24399553.518   128220518.534          42.500    24399553.238    99912091.625          32.500  
G19  20421046.784   107313325.555          49.750    20421044.064    83620772.203          44.500  
G11  23641971.064   124239394.717          45.750    23641970.304    96809917.464          30.750  
G16  22497363.790   118224443.402          47.750    22497362.990    92122942.790          38.500  
G08  24711428.336   129859432.211          41.750    24711427.576   101189167.533          30.750  
S29  37175518.292   195358667.247          44.250  
S37  37214021.752   195561002.033          42.500  
R14  19275139.912   102747341.178          49.000    19275147.932    79914600.324          42.500  
R17  21108448.200   112955569.658          44.250    21108449.620    87854331.687          40.500  
R13  21831794.236   116580562.709          45.500    21831800.376    90673772.092          40.750  
R23  22670401.232   121271358.228          38.750    22670405.192    94322168.534          33.250  
R15  21353050.040   114104224.671          43.500    21353055.560    88747730.938          39.500  
> 2009 12 18 23 07 22.0000000  0 16                     
G03  20218719.866   106250090.503          50.250    20218719.406    82792278.861          41.000  
G22  24667832.396   129630332.760          44.750    24667830.896   101010648.697          33.250  
G07  21865039.856   114901560.861          49.000    21865038.856    89533683.708          40.250  
G06  21125683.780   111016217.454          49.250    21125683.340    86506143.512          40.750  
G13  24400009.358   128222913.971          42.750    24400009.098    99913958.195          31.500  
G19  20421013.524   107313150.783          49.750    20421010.804    83620636.019          44.750  
G11  23641268.304   124235701.576          45.750    23641267.484    96807039.683          31.000  
G16  22497762.310   118226537.649          48.000    22497761.510    92124574.671          37.500  
G08  24710745.156   129855842.184          41.500    24710744.376   101186370.109          30.000  
S29  37175517.252   195358661.887          44.250  
S37  37214021.132   195560998.699          42.500  
R14  19275298.352   102748185.742          49.000    19275306.372    79915257.204          42.500  
R17  21108105.840   112953737.604          44.500    21108107.260    87852906.755          40.750  
R13  21832554.376   116584621.662          45.500    21832560.516    90676929.051          40.500  
R23  22671008.352   121274605.825          39.250    22671012.332    94324694.443          33.000  
R15  21352450.920   114101023.070          44.000    21352456.420    88745240.803          39.500  
> 2009 12 18 23 07 23.0000000  0 16                     
G03  20218938.186   106251237.856          50.250    20218937.726    82793172.902          41.250  
G22  24667546.196   129628828.774          44.500    24667544.696   101009476.764          33.500  
G07  21864693.296   114899739.726          49.000    21864692.276    89532264.637          40.000  
G06  21125991.760   111017835.895          49.250    21125991.320    86507404.636          40.750  
G13  24400465.238   128225309.642          42.500    24400465.018    99915824.958          32.500  
G19  20420980.364   107312976.413          49.750    20420977.644    83620500.143          45.000  
G11  23640565.564   124232008.628          45.750    23640564.704    96804162.066          29.250  
G16  22498160.890   118228632.167          47.750    22498160.090    92126206.763          37.500  
G08  24710062.036   129852252.390          41.500    24710061.316   101183572.871          31.750  
S29  37175516.272   195358656.792          44.250  
S37  37214020.512   195560995.346          42.250  
R14  19275456.952   102749031.241          49.000    19275464.952    79915914.817          42.500  
R17  21107763.540   112951905.949          44.250    21107764.980    87851482.132          40.750  
R13  21833314.576   116588680.991          45.750    21833320.716    90680086.306          41.000  
R23  22671615.472   121277853.451          39.000    22671619.412    94327220.375          33.250  
R15  21351851.880   114097822.032          44.000    21351857.420    88742751.108          40.000  
> 2009 12 18 23 07 24.0000000  0 16                     
G03  20219156.606   106252385.661          50.250    20219156.146    82794067.295          41.250  
G22  24667260.096   129627325.248          44.500    24667258.556   101008305.188          32.750  
G07  21864346.896   114897919.326          49.000    21864345.856    89530846.144          40.000  
G06  21126299.800   111019454.690          49.250    21126299.340    86508666.029          41.250  
G13  24400921.198   128227705.702          42.500    24400920.998    99917692.013          31.250  
G19  20420947.264   107312802.574          50.000    20420944.544    83620364.681          44.750  
G11  23639862.904   124228315.960          45.750    23639862.024    96801284.658          32.000  
G16  22498559.530   118230727.076          47.750    22498558.750    92127839.160          38.250  
G08  24709378.976   129848662.952          41.750    24709378.316   101180775.908          28.250  
S29  37175515.372   195358651.958          44.250  
S37  37214019.932   195560992.319          42.250  
R14  19275615.792   102749877.804          49.000    19275623.772    79916573.253          42.500  
R17  21107421.360   112950074.861          44.500    21107422.800    87850057.957          40.500  
R13  21834074.856   116592740.892          46.000    21834081.016    90683244.004          40.750  
R23  22672222.592   121281101.222          39.250    22672226.572    94329746.421          33.500  
R15  21351252.980   114094621.690          44.250    21351258.520    88740261.952          39.250  
> 2009 12 18 23 07 25.0000000  0 16                     
G03  20219375.106   106253533.873          50.250    20219374.646    82794962.006          41.250  
G22  24666974.076   129625822.145          44.500    24666972.536   101007133.936          33.500  
G07  21864000.616   114896099.592          49.000    21863999.576    89529428.165          40.250  
G06  21126607.900   111021073.764          49.250    21126607.440    86509927.651          40.500  
G13  24401377.238   128230102.066          42.500    24401377.058    99919559.304          32.000  
G19  20420914.284   107312629.205          50.000    20420911.564    83620229.591          44.500  
G11  23639160.264   124224623.561          45.750    23639159.384    96798407.454          31.500  
G16  22498958.250   118232822.354          48.000    22498957.470    92129471.841          37.500  
G08  24708695.976   129845073.820          42.000    24708695.336   101177979.189          29.750  
S29  37175514.432   195358647.178          44.500  
S37  37214019.392   195560989.581          42.500  
R14  19275774.792   102750725.363          49.000    19275782.772    79917232.463          42.500  
R17  21107079.280   112948244.285          44.500    21107080.720    87848634.179          40.500  
R13  21834835.236   116596801.252          46.000    21834841.396    90686402.064          40.500  
R23  22672829.752   121284349.047          39.000    22672833.732    94332272.506          32.750  
R15  21350654.200   114091421.996          44.250    21350659.740    88737773.302          39.250  
> 2009 12 18 23 07 26.0000000  0 16                     
G03  20219593.646   106254682.314          50.250    20219593.186    82795856.897          41.250  
G22  24666688.096   129624319.268          44.500    24666686.536   101005962.859          33.750  
G07  21863654.436   114894280.364          49.250    21863653.396    89528010.587          39.750  
G06  21126916.000   111022692.911          49.500    21126915.540    86511189.324          41.250  
G13  24401833.278   128232498.567          43.000    24401833.098    99921426.693          33.750  
G19  20420881.364   107312456.148          50.000    20420878.644    83620094.740          44.250  
G11  23638457.664   124220931.240          45.500    23638456.764    96795530.322          31.500  
G16  22499357.010   118234917.789          48.000    22499356.230    92131104.643          38.000  
G08  24708013.016   129841484.815          41.750    24708012.316   101175182.575          31.250  
S29  37175513.432   195358642.002          44.250  
S37  37214018.872   195560986.925          42.500  
R14  19275933.952   102751573.744          49.000    19275941.932    79917892.317          42.750  
R17  21106737.260   112946414.013          44.500    21106738.700    87847210.631          40.250  
R13  21835595.716   116600861.935          45.750    21835601.856    90689560.373          40.500  
R23  22673436.872   121287596.769          39.000    22673440.872    94334798.511          33.250  
R15  21350055.500   114088222.741          44.250    21350061.080    88735284.990          39.250  
> 2009 12 18 23 07 27.0000000  0 16                     
G03  20219812.226   106255830.975          50.250    20219811.766    82796751.960          41.250  
G22  24666402.136   129622816.606          44.500    24666400.536   101004791.946          33.250  
G07  21863308.336   114892461.596          49.000    21863307.276    89526593.364          40.500  
G06  21127224.140   111024312.187          49.250    21127223.680    86512451.098          41.250  
G13  24402289.358   128234895.200          43.000    24402289.198    99923294.199          33.500  
G19  20420848.464   107312283.366          50.000    20420845.764    83619960.106          44.500  
G11  23637755.084   124217238.975          45.250    23637754.144    96792653.239          33.500  
G16  22499755.770   118237013.373          48.000    22499755.010    92132737.569          38.000  
G08  24707330.076   129837895.941          41.250    24707329.456   101172386.042          33.250  
S29  37175512.372   195358636.603          44.250  
S37  37214018.352   195560984.053          42.250  
R14  19276093.252   102752422.937          49.000    19276101.232    79918552.798          42.250  
R17  21106395.300   112944584.047          44.500    21106396.720    87845787.325          40.500  
R13  21836356.216   116604922.885          45.750    21836362.336    90692718.892          40.500  
R23  22674043.992   121290844.372          38.750    22674047.992    94337324.422          33.500  
R15  21349456.880   114085023.943          44.250    21349462.440    88732797.036          39.500  
> 2009 12 18 23 07 28.0000000  0 16                     
G03  20220030.866   106256979.878          50.250    20220030.426    82797647.209          41.250  
G22  24666116.256   129621314.200          44.500    24666114.616   101003621.235          34.000  
G07  21862962.336   114890643.343          49.000    21862961.276    89525176.547          40.500  
G06  21127532.300   111025931.616          49.250    21127531.840    86513712.986          41.250  
G13  24402745.438   128237291.961          42.750    24402745.258    99925161.789          33.250  
G19  20420815.644   107312110.903          50.000    20420812.944    83619825.722          44.750  
G11  23637052.504   124213546.798          45.250    23637051.504    96789776.212          32.250  
G16  22500154.590   118239109.131          48.000    22500153.810    92134370.629          37.750  
G08  24706647.136   129834307.183          41.250    24706646.596   101169589.609          27.000  
S29  37175511.412   195358631.584          44.250  
S37  37214017.772   195560981.055          42.250  
R14  19276252.712   102753272.964          49.000    19276260.692    79919213.933          43.250  
R17  21106053.380   112942754.428          44.500    21106054.800    87844364.289          41.250  
R13  21837116.756   116608984.127          45.500    21837122.896    90695877.637          41.000  
R23  22674651.052   121294091.875          39.250    22674655.112    94339850.256          34.000  
R15  21348858.340   114081825.612          44.500    21348863.940    88730309.443          40.000  
> 2009 12 18 23 07 29.0000000  0 16                     
G03  20220249.546   106258129.118          50.250    20220249.106    82798542.714          42.000  
G22  24665830.416   129619812.124          44.250    24665828.756   101002450.780          32.250  
G07  21862616.456   114888825.687          48.750    21862615.396    89523760.192          40.750  
G06  21127840.520   111027551.241          49.250    21127840.060    86514975.028          41.500  
G13  24403201.598   128239688.998          43.000    24403201.458    99927029.602          31.500  
G19  20420782.904   107311938.845          49.750    20420780.204    83619691.653          45.250  
G11  23636349.944   124209854.805          45.250    23636348.944    96786899.340          33.500  
G16  22500553.470   118241205.181          48.000    22500552.690    92136003.916          38.500  
G08  24705964.276   129830718.653          41.250    24705963.656   101166793.362          31.000  
S29  37175510.452   195358626.397          44.250  
S37  37214017.232   195560978.283          42.250  
R14  19276412.352   102754123.928          49.000    19276420.332    79919875.795          43.000  
R17  21105711.560   112940925.259          44.500    21105712.980    87842941.606          41.250  
R13  21837877.356   116613045.782          45.250    21837883.516    90699036.698          41.250  
R23  22675258.152   121297339.360          38.750    22675262.232    94342376.075          34.250  
R15  21348259.900   114078627.823          44.250    21348265.500    88727822.274          40.250  
> 2009 12 18 23 07 30.0000000  0 17                     
G03  20220468.286   106259278.623          50.250    20220467.846    82799438.432          42.000  
G22  24665544.656   129618310.316          44.250    24665542.956   101001280.535          32.250  
G07  21862270.676   114887008.564          49.000    21862269.616    89522344.252          40.750  
G06  21128148.740   111029171.027          49.250    21128148.300    86516237.201          41.750  
G13  24403657.758   128242086.193          43.250    24403657.618    99928897.548          31.250  
G19  20420750.224   107311767.119          49.750    20420747.524    83619557.840          45.000  
G11  23635647.424   124206162.935          45.500    23635646.444    96784022.566          32.000  
G16  22500952.370   118243301.441          48.000    22500951.610    92137637.364          38.250  
G08  24705281.436   129827130.310          41.500    24705280.856   101163997.241          31.750  
S29  37175509.412   195358621.234          44.000  
S37  37214016.752   195560975.437          42.000  
R14  19276572.152   102754975.751          49.000    19276580.132    79920538.323          43.250  
R17  21105369.820   112939096.442          44.500    21105371.240    87841519.195          41.500  
R13  21838638.036   116617107.778          45.000    21838644.196    90702196.029          41.000  
R23  22675865.212   121300586.754          39.250    22675869.252    94344901.828          33.750  
R15  21347661.580   114075430.524          44.000    21347667.180    88725335.484          40.000  
R08  23728788.024   127066581.4021         33.250    23728788.024    98829564.1061                 
> 2009 12 18 23 07 31.0000000  0 17                     
G03  20220687.146   106260428.635          50.250    20220686.706    82800334.546          42.000  
G22  24665258.976   129616809.021          44.000    24665257.256   101000110.700          34.250  
G07  21861925.036   114885192.214          48.750    21861923.976    89520928.916          41.250  
G06  21128457.040   111030791.173          49.250    21128456.600    86517499.652          41.750  
G13  24404114.018   128244483.816          43.250    24404113.858    99930765.824          30.250  
G19  20420717.644   107311595.962          49.750    20420714.944    83619424.469          45.250  
G11  23634944.964   124202471.417          45.000    23634944.004    96781146.061          32.750  
G16  22501351.370   118245398.129          48.250    22501350.610    92139271.147          38.750  
G08  24704598.656   129823542.387          41.250    24704598.096   101161201.444          32.750  
S29  37175508.432   195358616.287          44.250  
S37  37214016.172   195560972.539          42.000  
R14  19276732.152   102755828.679          49.000    19276740.132    79921201.711          43.250  
R17  21105028.160   112937268.220          44.250    21105029.600    87840097.245          41.500  
R13  21839398.836   116621170.322          45.000    21839405.016    90705355.781          41.250  
R23  22676472.332   121303834.321          38.500    22676476.352    94347427.707          34.000  
R15  21347063.360   114072233.938          44.000    21347068.980    88722849.248          40.250  
R08  23728532.644   127065213.527          33.500    23728532.644    98828500.4581                 
> 2009 12 18 23 07 32.0000000  0 17                     
G03  20220906.046   106261578.980          50.250    20220905.606    82801230.921          42.250  
G22  24664973.336   129615308.065          44.000    24664971.596   100998941.130          33.500  
G07  21861579.516   114883376.465          48.750    21861578.456    89519514.043          40.750  
G06  21128765.400   111032411.553          49.250    21128764.940    86518762.286          42.000  
G13  24404570.318   128246881.681          43.250    24404570.158    99932634.294          34.500  
G19  20420685.164   107311425.223          49.750    20420682.464    83619291.426          45.250  
G11  23634242.524   124198780.067          45.000    23634241.584    96778269.686          35.000  
G16  22501750.410   118247495.098          48.000    22501749.650    92140905.149          38.500  
G08  24703915.936   129819954.643          41.250    24703915.396   101158405.793          31.500  
S29  37175507.492   195358611.321          44.250  
S37  37214015.572   195560969.623          42.000  
R14  19276892.332   102756682.542          49.000    19276900.332    79921865.822          43.250  
R17  21104686.580   112935440.410          44.500    21104688.040    87838675.610          41.250  
R13  21840159.676   116625233.267          44.750    21840165.856    90708515.843          41.000  
R23  22677079.492   121307081.868          38.500    22677083.452    94349953.577          34.250  
R15  21346465.280   114069037.886          44.000    21346470.900    88720363.428          40.500  
R08  23728277.284   127063846.306          33.500    23728277.284    98827436.8921                 
> 2009 12 18 23 07 33.0000000  0 17                     
G03  20221124.986   106262729.581          50.250    20221124.546    82802127.493          41.500  
G22  24664687.776   129613807.366          43.750    24664685.996   100997771.762          32.500  
G07  21861234.076   114881561.229          48.500    21861233.016    89518099.573          41.000  
G06  21129073.760   111034032.037          49.250    21129073.300    86520025.001          41.000  
G13  24405026.658   128249279.738          43.000    24405026.458    99934502.918          30.500  
G19  20420652.724   107311254.808          49.750    20420650.024    83619158.632          44.500  
G11  23633540.124   124195088.830          45.000    23633539.184    96775393.394          32.250  
G16  22502149.490   118249592.257          48.000    22502148.710    92142539.298          37.750  
G08  24703233.256   129816367.083          41.250    24703232.676   101155610.294          32.750  
S29  37175506.632   195358606.481          44.250  
S37  37214014.952   195560966.501          42.000  
R14  19277052.672   102757537.241          49.000    19277060.652    79922530.591          42.250  
R17  21104345.060   112933612.959          44.250    21104346.560    87837254.255          40.750  
R13  21840920.596   116629296.532          44.750    21840926.776    90711676.156          40.250  
R23  22677686.532   121310329.326          38.500    22677690.512    94352479.375          33.250  
R15  21345867.300   114065842.337          43.750    21345872.920    88717877.999          39.750  
R08  23728022.124   127062479.708          32.750    23728022.124    98826374.1601                 
> 2009 12 18 23 07 34.0000000  0 17                     
G03  20221344.046   106263880.712          50.250    20221343.586    82803024.478          41.750  
G22  24664402.296   129612307.205          43.500    24664400.516   100996602.794          33.500  
G07  21860888.816   114879746.794          48.500    21860887.756    89516685.729          40.750  
G06  21129382.200   111035652.908          49.250    21129381.740    86521288.015          41.250  
G13  24405483.098   128251678.236          42.750    24405482.898    99936371.873          30.500  
G19  20420620.404   107311084.984          49.750    20420617.704    83619026.304          44.750  
G11  23632837.764   124191397.974          44.500    23632836.784    96772517.403          31.750  
G16  22502548.670   118251689.907          48.000    22502547.890    92144173.829          37.750  
G08  24702550.636   129812779.964          41.250    24702550.036   101152815.145          30.750  
S29  37175505.672   195358601.499          44.000  
S37  37214014.452   195560963.816          42.250  
R14  19277213.212   102758393.066          48.750    19277221.192    79923196.230          42.250  
R17  21104003.660   112931786.131          44.250    21104005.180    87835833.391          40.500  
R13  21841681.636   116633360.401          44.750    21841687.836    90714836.937          40.500  
R23  22678293.652   121313576.987          39.000    22678297.612    94355005.334          33.000  
R15  21345269.460   114062647.538          43.250    21345275.060    88715393.155          39.500  
R08  23727767.084   127061113.967          33.750    23727767.084    98825311.9271                 
> 2009 12 18 23 07 35.0000000  0 17                     
G03  20221563.166   106265032.164          50.250    20221562.726    82803921.711          41.750  
G22  24664116.876   129610807.353          43.250    24664115.096   100995434.088          33.250  
G07  21860543.656   114877932.937          48.500    21860542.596    89515272.334          41.000  
G06  21129690.680   111037273.995          49.250    21129690.240    86522551.202          41.000  
G13  24405939.538   128254076.939          43.000    24405939.318    99938240.982          34.000  
G19  20420588.164   107310915.553          49.750    20420585.464    83618894.280          44.750  
G11  23632135.464   124187707.289          44.500    23632134.464    96769641.538          30.500  
G16  22502947.890   118253787.791          48.000    22502947.090    92145808.543          38.500  
G08  24701868.076   129809193.058          41.000    24701867.516   101150020.149          34.750  
S29  37175504.732   195358596.717          44.000  
S37  37214013.892   195560961.081          42.000  
R14  19277373.932   102759249.807          48.750    19277381.932    79923862.584          42.500  
R17  21103662.320   112929959.707          44.250    21103663.880    87834412.839          40.750  
