     3.04           OBSERVATION DATA    M: Mixed            RINEX VERSION / TYPE
CONVBIN demo5 b34f.1                    20220527 015937 UTC PGM / RUN BY / DATE 
log: /home/igor/git/flutter_rtklib/test/data/rcvraw/ubx_2008COMMENT             
format: u-blox UBX                                          COMMENT             
format: u-blox UBX                                          COMMENT             
log: /home/igor/git/flutter_rtklib/test/data/rcvraw/ubx_2008COMMENT             
                                                            MARKER NAME         
                                                            MARKER NUMBER       
                                                            MARKER TYPE         
                                                            OBSERVER / AGENCY   
                                                            REC # / TYPE / VERS 
                                                            ANT # / TYPE        
 -3869302.1924  3436557.7997  3717357.2463                  APPROX POSITION XYZ 
        0.0000        0.0000        0.0000                  ANTENNA: DELTA H/E/N
G    2 C1C L1C                                              SYS / # / OBS TYPES 
S    2 C1C L1C                                              SYS / # / OBS TYPES 
  2008    05    26    05    59   29.9990000     GPS         TIME OF FIRST OBS   
  2008    05    26    06    03   25.9990000     GPS         TIME OF LAST OBS    
G L1C                                                       SYS / PHASE SHIFT   
S L1C                                                       SYS / PHASE SHIFT   
  0                                                         GLONASS SLOT / FRQ #
 C1C    0.000 C1P    0.000 C2C    0.000 C2P    0.000        GLONASS COD/PHS/BIS 
                                                            END OF HEADER       
> 2008 05 26 05 59 29.9990000  0 10                     
G18  20374092.016   107066545.4351 
G09  20466294.850   107551085.4301 
G12  20502549.463   107741620.9891 
G05  20139221.883   105832290.6071 
G30  21548661.481   113238933.5621 
G14  22697162.091   119274399.1291 
G15  23560321.579   123810291.3401 
S37  36902729.249   193925123.2731 
G22  20840902.010   109519667.7061 
G26  25139488.542   132108912.9931 
> 2008 05 26 05 59 30.9990000  0 10                     
G18  20374273.891   107067502.538  
G09  20466585.553   107552612.451  
G12  20502283.015   107740220.823  
G05  20138745.810   105829789.517  
G30  21547943.391   113235160.974  
G14  22696567.500   119271275.956  
G15  23560711.874   123812341.617  
S37  36902623.814   193924569.030  
G22  20840574.159   109517943.711  
G26  25139938.683   132111275.813  
> 2008 05 26 05 59 31.9990000  0 10                     
G18  20374456.294   107068460.055  
G09  20466876.082   107554139.571  
G12  20502016.219   107738821.104  
G05  20138270.143   105827288.823  
G30  21547225.398   113231388.545  
G14  22695972.893   119268152.606  
G15  23561102.393   123814391.894  
S37  36902518.393   193924014.864  
G22  20840246.278   109516220.080  
G26  25140388.424   132113638.517  
> 2008 05 26 05 59 32.9990000  0 10                     
G18  20374638.521   107069417.764  
G09  20467166.679   107555666.532  
G12  20501749.993   107737421.604  
G05  20137794.366   105824788.289  
G30  21546507.622   113227616.045  
G14  22695378.499   119265028.883  
G15  23561492.370   123816441.929  
S37  36902412.871   193923460.351  
G22  20839918.549   109514496.614  
G26  25140838.608   132116000.857  
> 2008 05 26 05 59 33.9990000  0 10                     
G18  20374820.954   107070376.806  
G09  20467457.492   107557194.511  
G12  20501484.144   107736023.476  
G05  20137318.717   105822289.055  
G30  21545789.968   113223844.641  
G14  22694784.681   119261905.935  
G15  23561882.243   123818492.867  
S37  36902307.455   193922906.604  
G22  20839590.865   109512774.459  
G26  25141288.798   132118364.007  
> 2008 05 26 05 59 34.9990000  0 10                     
G18  20375003.593   107071335.716  
G09  20467748.452   107558722.039  
G12  20501218.006   107734625.266  
G05  20136843.102   105819789.667  
G30  21545072.101   113220072.856  
G14  22694190.331   119258782.272  
G15  23562271.635   123820543.282  
S37  36902202.138   193922352.190  
G22  20839263.136   109511052.144  
G26  25141738.590   132120726.463  
> 2008 05 26 05 59 35.9990000  0 10                     
G18  20375186.152   107072295.099  
G09  20468039.164   107560249.715  
G12  20500951.885   107733227.568  
G05  20136367.793   105817290.730  
G30  21544354.229   113216301.309  
G14  22693595.950   119255658.543  
G15  23562662.027   123822593.752  
S37  36902096.760   193921797.942  
G22  20838935.421   109509330.286  
G26  25142188.086   132123088.864  
> 2008 05 26 05 59 36.9990000  0 10                     
G18  20375368.720   107073255.513  
G09  20468329.444   107561778.103  
G12  20500686.371   107731830.944  
G05  20135892.226   105814792.802  
G30  21543636.659   113212530.549  
G14  22693001.251   119252535.265  
G15  23563052.166   123824644.823  
S37  36901991.296   193921244.085  
G22  20838607.579   109507609.431  
G26  25142637.486   132125451.755  
> 2008 05 26 05 59 37.9990000  0 10                     
G18  20375551.236   107074216.544  
G09  20468620.740   107563306.776  
G12  20500420.975   107730434.954  
G05  20135417.166   105812295.452  
G30  21542919.250   113208760.142  
G14  22692407.368   119249412.037  
G15  23563442.375   123826696.069  
S37  36901885.832   193920690.112  
G22  20838280.209   109505889.159  
G26  25143087.431   132127814.740  
> 2008 05 26 05 59 38.9990000  0 10                     
G18  20375734.324   107075177.998  
G09  20468911.317   107564835.538  
G12  20500155.518   107729039.426  
G05  20134942.014   105809798.499  
G30  21542201.989   113204989.917  
G14  22691813.402   119246288.655  
G15  23563832.614   123828747.333  
S37  36901780.227   193920135.770  
G22  20837952.925   109504169.285  
G26  25143537.407   132130177.604  
> 2008 05 26 05 59 39.9990000  0 10                     
G18  20375917.341   107076140.434  
G09  20469202.320   107566364.961  
G12  20499890.138   107727644.923  
G05  20134466.931   105807302.509  
G30  21541484.584   113201220.413  
G14  22691219.557   119243165.691  
G15  23564223.228   123830799.125  
S37  36901674.709   193919581.665  
G22  20837625.715   109502450.379  
G26  25143986.980   132132540.891  
> 2008 05 26 05 59 40.9990000  0 10                     
G18  20376100.808   107077103.508  
G09  20469493.159   107567894.703  
G12  20499624.324   107726251.097  
G05  20133992.106   105804807.131  
G30  21540767.694   113197451.311  
G14  22690624.863   119240042.805  
G15  23564613.973   123832851.148  
S37  36901569.415   193919027.598  
G22  20837298.890   109500732.075  
G26  25144436.350   132134904.256  
> 2008 05 26 05 59 41.9990000  0 10                     
G18  20376284.001   107078066.924  
G09  20469784.076   107569424.456  
G12  20499359.324   107724857.646  
G05  20133516.967   105802312.062  
G30  21540050.337   113193682.303  
G14  22690031.015   119236919.681  
G15  23565004.496   123834903.072  
S37  36901463.963   193918473.245  
G22  20836971.812   109499014.106  
G26  25144886.470   132137267.429  
> 2008 05 26 05 59 42.9990000  0 10                     
G18  20376467.490   107079030.830  
G09  20470075.198   107570954.375  
G12  20499093.986   107723464.735  
G05  20133042.356   105799817.471  
G30  21539333.182   113189913.532  
G14  22689436.438   119233796.486  
G15  23565395.238   123836955.090  
S37  36901358.381   193917918.578  
G22  20836645.196   109497296.589  
G26  25145336.018   132139630.529  
> 2008 05 26 05 59 43.9990000  0 10                     
G18  20376651.018   107079994.047  
G09  20470365.897   107572483.291  
G12  20498828.860   107722071.179  
G05  20132567.623   105797322.159  
G30  21538615.686   113186143.841  
G14  22688841.962   119230672.035  
G15  23565785.821   123839005.968  
S37  36901252.716   193917362.512  
G22  20836318.184   109495578.378  
G26  25145785.217   132141992.412  
> 2008 05 26 05 59 44.9990000  0 10                     
G18  20376834.315   107080957.127  
G09  20470656.718   107574011.727  
G12  20498564.123   107720677.502  
G05  20132092.733   105794826.693  
G30  21537898.111   113182373.753  
G14  22688247.241   119227546.868  
G15  23566176.349   123841056.300  
S37  36901146.466   193916805.724  
G22  20835991.328   109493859.990  
G26  25146234.343   132144353.601  
> 2008 05 26 05 59 45.9990000  0 10                     
G18  20377017.673   107081920.956  
G09  20470947.988   107575540.588  
G12  20498298.979   107719284.629  
G05  20131618.222   105792331.938  
G30  21537180.846   113178604.167  
G14  22687652.197   119224421.900  
G15  23566566.688   123843106.957  
S37  36901040.560   193916249.372  
G22  20835664.625   109492142.335  
G26  25146683.237   132146715.016  
> 2008 05 26 05 59 46.9990000  0 10                     
G18  20377201.127   107082884.994  
G09  20471238.779   107577069.350  
G12  20498033.984   107717892.016  
G05  20131143.598   105789837.397  
G30  21536463.611   113174834.553  
G14  22687056.704   119221296.562  
G15  23566956.945   123845157.416  
S37  36900934.690   193915692.859  
G22  20835337.913   109490424.879  
G26  25147132.444   132149076.117  
> 2008 05 26 05 59 47.9990000  0 10                     
G18  20377384.843   107083850.156  
G09  20471530.119   107578598.905  
G12  20497769.073   107716500.559  
G05  20130669.418   105787343.947  
G30  21535746.128   113171065.821  
G14  22686462.385   119218171.786  
G15  23567346.826   123847208.586  
S37  36900828.772   193915136.821  
G22  20835011.228   109488708.513  
G26  25147581.779   132151437.791  
> 2008 05 26 05 59 48.9990000  0 10                     
G18  20377568.546   107084815.147  
G09  20471821.412   107580127.964  
G12  20497504.083   107715108.980  
G05  20130195.087   105784850.304  
G30  21535028.986   113167296.686  
G14  22685867.503   119215046.255  
G15  23567736.377   123849259.160  
S37  36900722.858   193914580.171  
G22  20834684.315   109486991.960  
G26  25148030.974   132153798.738  
> 2008 05 26 05 59 49.9990000  0 10                     
G18  20377752.065   107085779.637  
G09  20472112.368   107581656.197  
G12  20497239.345   107713716.939  
G05  20129720.476   105782356.143  
G30  21534311.594   113163526.797  
G14  22685273.389   119211919.695  
G15  23568126.276   123851308.820  
S37  36900616.574   193914022.386  
G22  20834357.368   109485274.878  
G26  25148480.540   132156158.671  
> 2008 05 26 05 59 50.9990000  0 10                     
G18  20377935.550   107086744.551  
G09  20472403.241   107583184.529  
G12  20496974.041   107712325.367  
G05  20129245.935   105779862.368  
G30  21533594.478   113159757.083  
G14  22684678.747   119208792.963  
G15  23568516.293   123853358.470  
S37  36900510.420   193913464.342  
G22  20834030.848   109483558.193  
G26  25148929.387   132158518.472  
> 2008 05 26 05 59 51.9990000  0 10                     
G18  20378119.139   107087709.338  
G09  20472694.075   107584712.415  
G12  20496709.775   107710933.706  
G05  20128771.367   105777368.450  
G30  21532877.265   113155986.996  
G14  22684083.764   119205665.560  
G15  23568905.563   123855407.557  
S37  36900404.178   193912905.599  
G22  20833704.438   109481841.369  
G26  25149378.119   132160877.617  
> 2008 05 26 05 59 52.9990000  0 10                     
G18  20378303.117   107088674.770  
G09  20472984.961   107586240.604  
G12  20496445.290   107709542.723  
G05  20128296.904   105774875.132  
G30  21532159.860   113152217.305  
G14  22683488.855   119202538.228  
G15  23569295.645   123857456.881  
S37  36900297.680   193912346.591  
G22  20833378.048   109480125.158  
G26  25149827.073   132163236.851  
> 2008 05 26 05 59 53.9990000  0 10                     
G18  20378486.745   107089641.133  
G09  20473275.808   107587769.410  
G12  20496180.413   107708152.703  
G05  20127822.768   105772382.723  
G30  21531442.612   113148448.302  
G14  22682894.204   119199411.254  
G15  23569685.632   123859506.718  
S37  36900191.486   193911788.041  
G22  20833051.436   109478409.850  
G26  25150276.028   132165596.448  
> 2008 05 26 05 59 54.9990000  0 10                     
G18  20378670.465   107090607.540  
G09  20473566.668   107589297.935  
G12  20495916.016   107706762.766  
G05  20127348.175   105769890.347  
G30  21530725.295   113144679.096  
G14  22682299.069   119196283.752  
G15  23570075.919   123861556.158  
S37  36900085.057   193911228.780  
G22  20832725.069   109476694.569  
G26  25150724.926   132167955.582  
> 2008 05 26 05 59 55.9990000  0 10                     
G18  20378854.648   107091575.048  
G09  20473857.498   107590827.236  
G12  20495651.549   107705373.981  
G05  20126874.261   105767399.045  
G30  21530007.825   113140910.749  
G14  22681704.562   119193156.816  
G15  23570466.184   123863606.270  
S37  36899978.551   193910669.932  
G22  20832398.938   109474980.368  
G26  25151173.859   132170315.262  
> 2008 05 26 05 59 56.9990000  0 10                     
G18  20379038.512   107092542.590  
G09  20474148.428   107592356.257  
G12  20495387.248   107703985.256  
G05  20126400.252   105764907.755  
G30  21529290.974   113137142.187  
G14  22681109.580   119190029.325  
G15  23570856.472   123865655.990  
S37  36899872.187   193910110.621  
G22  20832072.754   109473266.172  
G26  25151623.259   132172674.441  
> 2008 05 26 05 59 57.9990000  0 10                     
G18  20379222.978   107093510.561  
G09  20474439.476   107593885.388  
G12  20495123.151   107702597.016  
G05  20125926.217   105762416.882  
G30  21528573.783   113133373.824  
G14  22680514.422   119186901.718  
G15  23571246.235   123867705.755  
S37  36899765.619   193909551.289  
G22  20831746.736   109471552.401  
G26  25152072.026   132175033.526  
> 2008 05 26 05 59 58.9990000  0 10                     
G18  20379407.435   107094479.590  
G09  20474730.916   107595415.245  
G12  20494859.085   107701209.872  
G05  20125452.561   105759927.035  
G30  21527856.661   113129606.264  
G14  22679919.020   119183774.606  
G15  23571636.181   123869756.137  
S37  36899659.171   193908992.231  
G22  20831420.533   109469839.654  
G26  25152521.447   132177393.123  
> 2008 05 26 05 59 59.9990000  0 10                     
G18  20379591.796   107095448.349  
G09  20475021.929   107596944.497  
G12  20494594.989   107699822.486  
G05  20124978.661   105757436.890  
G30  21527139.693   113125838.182  
G14  22679323.633   119180646.646  
G15  23572025.828   123871805.830  
S37  36899552.543   193908432.117  
G22  20831094.821   109468126.610  
G26  25152969.961   132179751.899  
> 2008 05 26 06 00 00.9990000  0 10                     
G18  20379776.358   107096417.852  
G09  20475312.750   107598474.174  
G12  20494330.645   107698435.876  
G05  20124504.796   105754947.466  
G30  21526422.808   113122070.600  
G14  22678728.314   119177518.830  
G15  23572415.731   123873855.827  
S37  36899446.053   193907872.239  
G22  20830769.265   109466414.282  
G26  25153418.716   132182110.868  
> 2008 05 26 06 00 01.9990000  0 10                     
G18  20379960.660   107097387.073  
G09  20475603.467   107600003.255  
G12  20494066.702   107697049.046  
G05  20124031.062   105752457.746  
G30  21525705.844   113118302.507  
G14  22678132.381   119174390.192  
G15  23572805.631   123875905.145  
S37  36899339.319   193907311.518  
G22  20830442.807   109464701.662  
G26  25153867.061   132184469.039  
> 2008 05 26 06 00 02.9990000  0 10                     
G18  20380144.990   107098356.994  
G09  20475894.392   107601532.700  
G12  20493802.811   107695662.938  
G05  20123557.633   105749968.708  
G30  21524988.823   113114534.865  
G14  22677536.818   119171261.709  
G15  23573195.573   123877954.745  
S37  36899232.672   193906750.907  
G22  20830117.356   109462989.714  
G26  25154316.718   132186827.325  
> 2008 05 26 06 00 03.9990000  0 10                     
G18  20380329.447   107099326.916  
G09  20476185.710   107603061.836  
G12  20493539.373   107694276.885  
G05  20123083.907   105747479.626  
G30  21524271.497   113110766.980  
G14  22676941.430   119168132.637  
G15  23573586.244   123880003.898  
S37  36899125.720   193906189.702  
G22  20829791.691   109461277.760  
G26  25154764.660   132189185.077  
> 2008 05 26 06 00 04.9990000  0 10                     
G18  20380514.267   107100297.294  
G09  20476476.789   107604591.093  
G12  20493275.971   107692891.327  
G05  20122610.566   105744990.990  
G30  21523555.078   113106999.311  
G14  22676346.168   119165003.460  
G15  23573976.640   123882053.123  
S37  36899018.912   193905628.320  
G22  20829465.769   109459566.225  
G26  25155213.616   132191542.768  
> 2008 05 26 06 00 05.9990000  0 10                     
G18  20380698.947   107101267.684  
G09  20476767.767   107606120.042  
G12  20493012.355   107691505.819  
G05  20122136.893   105742502.360  
G30  21522838.001   113103231.421  
G14  22675750.666   119161873.748  
G15  23574366.683   123884101.930  
S37  36898911.803   193905066.305  
G22  20829140.038   109457854.685  
G26  25155662.366   132193899.914  
> 2008 05 26 06 00 06.9990000  0 10                     
G18  20380883.274   107102238.029  
G09  20477058.667   107607648.622  
G12  20492748.590   107690120.311  
G05  20121663.132   105740013.642  
G30  21522120.492   113099463.234  
G14  22675155.349   119158743.414  
G15  23574756.779   123886150.263  
S37  36898804.606   193904503.606  
G22  20828814.274   109456143.072  
G26  25156110.248   132196256.454  
> 2008 05 26 06 00 07.9990000  0 10                     
G18  20381068.085   107103208.787  
G09  20477349.601   107609177.296  
G12  20492484.856   107688735.244  
G05  20121189.957   105737525.325  
G30  21521403.506   113095695.212  
G14  22674559.703   119155612.932  
G15  23575146.922   123888198.612  
S37  36898697.723   193903941.007  
G22  20828488.531   109454431.868  
G26  25156558.382   132198612.889  
> 2008 05 26 06 00 08.9990000  0 10                     
G18  20381253.365   107104181.231  
G09  20477640.792   107610707.330  
G12  20492221.641   107687351.912  
G05  20120716.854   105735038.673  
G30  21520686.886   113091928.628  
G14  22673964.143   119152483.573  
G15  23575537.544   123890248.211  
S37  36898591.062   193903379.416  
G22  20828163.502   109452722.311  
G26  25157006.708   132200970.443  
> 2008 05 26 06 00 09.9990000  0 10                     
G18  20381438.429   107105154.089  
G09  20477932.154   107612237.441  
G12  20491958.273   107685969.031  
G05  20120243.491   105732552.417  
G30  21519970.074   113088162.231  
G14  22673368.564   119149354.059  
G15  23575927.762   123892297.811  
S37  36898484.015   193902817.511  
G22  20827838.125   109451013.161  
G26  25157454.987   132203327.903  
> 2008 05 26 06 00 10.9990000  0 10                     
G18  20381623.581   107106126.577  
G09  20478223.019   107613766.853  
G12  20491695.006   107684585.810  
G05  20119770.071   105730065.747  
G30  21519253.665   113084395.189  
G14  22672772.717   119146223.610  
G15  23576317.714   123894346.584  
S37  36898376.924   193902254.587  
G22  20827513.102   109449303.592  
G26  25157902.917   132205684.426  
> 2008 05 26 06 00 11.9990000  0 10                     
G18  20381809.006   107107099.687  
G09  20478514.245   107615296.573  
G12  20491431.874   107683203.260  
G05  20119297.065   105727579.701  
G30  21518536.871   113080628.550  
G14  22672177.084   119143093.221  
G15  23576707.198   123896395.584  
S37  36898269.913   193901691.795  
G22  20827188.183   109447594.646  
G26  25158350.733   132208041.065  
> 2008 05 26 06 00 12.9990000  0 10                     
G18  20381993.948   107108072.870  
G09  20478805.123   107616826.040  
G12  20491169.174   107681820.820  
G05  20118823.793   105725093.692  
G30  21517819.929   113076861.734  
G14  22671581.535   119139962.336  
G15  23577096.652   123898444.219  
S37  36898162.665   193901128.364  
G22  20826862.636   109445885.744  
G26  25158798.563   132210397.242  
> 2008 05 26 06 00 13.9990000  0 10                     
G18  20382179.348   107109046.740  
G09  20479096.201   107618355.860  
G12  20490905.972   107680439.102  
G05  20118350.761   105722608.340  
G30  21517103.121   113073095.354  
G14  22670985.514   119136831.584  
G15  23577486.036   123900493.125  
S37  36898055.538   193900564.983  
G22  20826537.695   109444177.503  
G26  25159246.631   132212753.528  
> 2008 05 26 06 00 14.9990000  0 10                     
G18  20382364.582   107110021.195  
G09  20479387.381   107619885.943  
G12  20490643.247   107679058.017  
G05  20117878.087   105720123.565  
G30  21516386.930   113069329.320  
G14  22670390.340   119133700.842  
G15  23577875.469   123902542.185  
S37  36897948.281   193900001.602  
G22  20826212.668   109442469.835  
G26  25159694.720   132215109.881  
> 2008 05 26 06 00 15.9990000  0 10                     
G18  20382550.339   107110995.754  
G09  20479678.188   107621415.823  
G12  20490380.306   107677677.092  
G05  20117405.308   105717638.890  
G30  21515669.979   113065563.165  
G14  22669794.489   119130569.649  
G15  23578264.390   123904590.958  
S37  36897840.975   193899437.928  
G22  20825887.508   109440762.261  
G26  25160142.862   132217465.793  
> 2008 05 26 06 00 16.9990000  0 10                     
G18  20382736.062   107111970.551  
G09  20479969.642   107622945.615  
G12  20490117.667   107676296.432  
G05  20116932.351   105715154.424  
G30  21514952.884   113061797.011  
G14  22669198.795   119127438.136  
G15  23578653.800   123906639.555  
S37  36897733.748   193898873.891  
G22  20825562.633   109439054.901  
G26  25160591.315   132219821.397  
> 2008 05 26 06 00 17.9990000  0 10                     
G18  20382921.522   107112945.831  
G09  20480260.410   107624475.572  
G12  20489854.675   107674916.311  
G05  20116459.881   105712670.427  
G30  21514236.094   113058031.093  
G14  22668602.570   119124306.541  
G15  23579043.529   123908688.213  
S37  36897626.093   193898309.441  
G22  20825237.915   109437348.010  
G26  25161039.935   132222176.962  
> 2008 05 26 06 00 18.9990000  0 10                     
G18  20383107.524   107113922.462  
G09  20480551.689   107626006.543  
G12  20489592.515   107673537.584  
G05  20115987.246   105710187.762  
G30  21513519.574   113054266.299  
G14  22668006.875   119121175.728  
G15  23579433.113   123910737.796  
S37  36897518.668   193897745.504  
G22  20824913.066   109435642.452  
G26  25161489.194   132224533.342  
> 2008 05 26 06 00 19.9990000  0 10                     
G18  20383293.569   107114899.792  
G09  20480843.116   107627537.910  
G12  20489330.290   107672159.606  
G05  20115514.589   105707705.775  
G30  21512803.357   113050501.957  
G14  22667410.462   119118045.047  
G15  23579823.366   123912787.660  
S37  36897411.438   193897181.781  
G22  20824588.321   109433937.565  
G26  25161937.887   132226889.860  
> 2008 05 26 06 00 20.9990000  0 10                     
G18  20383479.222   107115877.128  
G09  20481134.504   107629068.941  
G12  20489068.463   107670781.672  
G05  20115042.316   105705223.772  
G30  21512086.663   113046737.383  
G14  22666814.467   119114913.815  
G15  23580213.666   123914837.106  
S37  36897304.236   193896617.739  
G22  20824263.856   109432232.674  
G26  25162386.550   132229245.871  
> 2008 05 26 06 00 21.9990000  0 10                     
G18  20383665.402   107116854.964  
G09  20481425.691   107630600.160  
G12  20488806.325   107669404.289  
G05  20114570.096   105702742.258  
G30  21511370.296   113042973.063  
G14  22666218.656   119111782.528  
G15  23580603.648   123916886.639  
S37  36897196.808   193896053.867  
G22  20823939.583   109430528.267  
G26  25162835.265   132231601.810  
> 2008 05 26 06 00 22.9990000  0 10                     
G18  20383851.287   107117832.361  
G09  20481716.679   107632130.618  
G12  20488544.149   107668026.493  
G05  20114097.614   105700260.271  
G30  21510653.874   113039208.065  
G14  22665623.111   119108650.233  
G15  23580993.718   123918935.286  
S37  36897089.329   193895489.064  
G22  20823615.262   109428823.397  
G26  25163283.265   132233956.792  
> 2008 05 26 06 00 23.9990000  0 10                     
G18  20384037.506   107118810.120  
G09  20482007.966   107633661.098  
G12  20488281.868   107666649.110  
G05  20113625.358   105697778.626  
G30  21509937.376   113035443.177  
G14  22665027.317   119105517.729  
G15  23581384.214   123920983.883  
S37  36896981.745   193894923.700  
G22  20823290.814   109427118.852  
G26  25163731.120   132236311.607  
> 2008 05 26 06 00 24.9990000  0 10                     
G18  20384223.730   107119788.827  
G09  20482299.450   107635192.201  
G12  20488019.660   107665272.696  
G05  20113153.103   105695297.900  
G30  21509220.861   113031679.000  
G14  22664431.513   119102385.605  
G15  23581774.605   123923033.014  
S37  36896874.163   193894358.204  
G22  20822966.637   109425415.233  
G26  25164178.705   132238666.803  
> 2008 05 26 06 00 25.9990000  0 10                     
G18  20384410.339   107120768.543  
G09  20482591.170   107636723.981  
G12  20487757.938   107663897.346  
G05  20112681.140   105692818.177  
G30  21508505.019   113027915.605  
G14  22663835.672   119099253.943  
G15  23582165.338   123925082.735  
S37  36896766.740   193893792.999  
G22  20822642.739   109423712.621  
G26  25164626.910   132241022.456  
> 2008 05 26 06 00 26.9990000  0 10                     
G18  20384597.113   107121748.258  
G09  20482882.702   107638255.448  
G12  20487496.145   107662522.034  
G05  20112209.160   105690338.421  
G30  21507788.788   113024151.946  
G14  22663239.852   119096121.714  
G15  23582555.499   123927132.032  
S37  36896658.911   193893227.265  
G22  20822318.571   109422009.977  
G26  25165074.831   132243377.542  
> 2008 05 26 06 00 27.9990000  0 10                     
G18  20384783.607   107122728.926  
G09  20483174.447   107639787.542  
G12  20487234.810   107661147.714  
G05  20111737.130   105687859.607  
G30  21507072.639   113020389.013  
G14  22662644.096   119092989.871  
G15  23582945.389   123929181.852  
S37  36896551.539   193892661.785  
G22  20821994.816   109420308.253  
G26  25165522.730   132245733.074  
> 2008 05 26 06 00 28.9990000  0 10                     
G18  20384970.695   107123710.696  
G09  20483466.520   107641320.402  
G12  20486973.859   107659774.534  
G05  20111265.782   105685381.872  
G30  21506356.879   113016626.935  
G14  22662048.555   119089858.562  
G15  23583335.942   123931232.355  
S37  36896444.085   193892096.785  
G22  20821671.411   109418607.619  
G26  25165971.326   132248089.157  
> 2008 05 26 06 00 29.9990000  0 10                     
G18  20385157.883   107124693.551  
G09  20483758.257   107642854.011  
G12  20486712.934   107658402.461  
G05  20110794.273   105682905.184  
G30  21505641.323   113012865.688  
G14  22661452.888   119086727.760  
G15  23583726.072   123933283.524  
S37  36896336.504   193891532.373  
G22  20821347.892   109416908.048  
G26  25166419.727   132250445.774  
> 2008 05 26 06 00 30.9990000  0 10                     
G18  20385345.119   107125676.968  
G09  20484050.199   107644387.879  
G12  20486451.534   107657031.021  
G05  20110323.147   105680429.058  
G30  21504925.302   113009104.783  
G14  22660856.631   119083596.974  
G15  23584115.809   123935334.837  
S37  36896229.085   193890968.149  
G22  20821024.400   109415209.034  
G26  25166868.110   132252802.419  
> 2008 05 26 06 00 31.9990000  0 10                     
G18  20385532.151   107126660.032  
G09  20484341.509   107645921.075  
G12  20486190.671   107655659.257  
G05  20109852.053   105677952.563  
G30  21504209.398   113005343.305  
G14  22660261.051   119080465.285  
G15  23584505.935   123937385.390  
S37  36896121.644   193890403.407  
G22  20820701.117   109413509.650  
G26  25167317.432   132255158.204  
> 2008 05 26 06 00 32.9990000  0 10                     
G18  20385719.112   107127643.306  
G09  20484633.639   107647454.139  
G12  20485929.707   107654287.762  
G05  20109380.945   105675476.250  
G30  21503493.686   113001581.772  
G14  22659665.297   119077333.227  
G15  23584896.297   123939435.733  
S37  36896014.143   193889838.362  
G22  20820377.900   109411810.449  
G26  25167766.618   132257513.637  
> 2008 05 26 06 00 33.9990000  0 10                     
G18  20385906.087   107128626.948  
G09  20484925.284   107648987.236  
G12  20485669.197   107652916.648  
G05  20108909.841   105673000.289  
G30  21502777.887   112997820.360  
G14  22659069.546   119074200.982  
G15  23585287.007   123941486.016  
S37  36895906.566   193889272.965  
G22  20820054.316   109410111.583  
G26  25168215.185   132259868.899  
> 2008 05 26 06 00 34.9990000  0 10                     
G18  20386093.184   107129610.194  
G09  20485216.816   107650519.661  
G12  20485407.911   107651545.214  
G05  20108438.563   105670523.915  
G30  21502062.267   112994058.342  
G14  22658472.976   119071067.789  
G15  23585676.990   123943535.483  
S37  36895798.812   193888706.637  
G22  20819730.868   109408412.338  
G26  25168664.206   132262223.241  
> 2008 05 26 06 00 35.9990000  0 10                     
G18  20386280.468   107130594.090  
G09  20485508.074   107652052.389  
G12  20485147.121   107650174.474  
G05  20107967.394   105668048.169  
G30  21501346.428   112990296.727  
G14  22657876.467   119067934.663  
G15  23586066.784   123945585.187  
S37  36895691.166   193888140.385  
G22  20819407.977   109406713.703  
G26  25169113.248   132264577.666  
> 2008 05 26 06 00 36.9990000  0 10                     
G18  20386467.988   107131578.984  
G09  20485799.846   107653585.761  
G12  20484886.847   107648804.759  
G05  20107496.543   105665573.414  
G30  21500630.834   112986535.871  
G14  22657280.577   119064801.965  
G15  23586456.289   123947635.476  
S37  36895583.302   193887574.074  
G22  20819085.236   109405016.044  
G26  25169561.574   132266932.520  
> 2008 05 26 06 00 37.9990000  0 10                     
G18  20386655.468   107132563.271  
G09  20486091.426   107655118.219  
G12  20484625.936   107647434.471  
G05  20107025.536   105663098.015  
G30  21499915.131   112982774.162  
G14  22656684.590   119061668.117  
G15  23586846.402   123949684.690  
S37  36895475.185   193887006.346  
G22  20818761.914   109403317.757  
G26  25170009.447   132269286.262  
> 2008 05 26 06 00 38.9990000  0 10                     
G18  20386842.710   107133547.211  
G09  20486382.780   107656649.999  
G12  20484365.191   107646063.885  
G05  20106554.350   105660622.258  
G30  21499199.049   112979011.874  
G14  22656088.073   119058533.343  
G15  23587236.001   123951733.188  
S37  36895367.082   193886437.649  
G22  20818438.880   109401619.106  
G26  25170456.344   132271639.216  
> 2008 05 26 06 00 39.9990000  0 10                     
G18  20387030.042   107134531.542  
G09  20486674.167   107658181.813  
G12  20484104.697   107644693.707  
G05  20106083.289   105658146.848  
G30  21498483.449   112975249.707  
G14  22655491.637   119055398.393  
G15  23587625.830   123953781.614  
S37  36895258.807   193885868.699  
G22  20818115.549   109399920.808  
G26  25170903.173   132273991.861  
> 2008 05 26 06 00 40.9990000  0 10                     
G18  20387217.710   107135516.160  
G09  20486965.411   107659713.626  
G12  20483843.978   107643323.893  
G05  20105612.089   105655671.730  
G30  21497767.594   112971487.624  
G14  22654894.857   119052263.168  
G15  23588015.776   123955829.930  
S37  36895150.524   193885299.187  
G22  20817792.597   109398222.802  
G26  25171350.191   132276344.242  
> 2008 05 26 06 00 41.9990000  0 10                     
G18  20387405.130   107136501.653  
G09  20487256.904   107661245.996  
G12  20483583.115   107641955.004  
G05  20105141.348   105653197.483  
G30  21497051.768   112967726.179  
G14  22654298.767   119049128.279  
G15  23588405.798   123957878.720  
S37  36895042.137   193884730.032  
G22  20817469.633   109396525.666  
G26  25171797.352   132278697.125  
> 2008 05 26 06 00 42.9990000  0 10                     
G18  20387592.793   107137488.249  
G09  20487548.545   107662779.120  
G12  20483323.176   107640587.233  
G05  20104670.802   105650724.309  
G30  21496335.846   112963965.587  
G14  22653702.510   119045993.940  
G15  23588795.976   123959928.149  
S37  36894934.079   193884161.710  
G22  20817146.825   109394829.587  
G26  25172244.267                3 
> 2008 05 26 06 00 43.9990000  0 10                     
G18  20387780.405   107138475.103  
G09  20487840.125   107664312.184  
G12  20483062.997   107639219.787  
G05  20104200.336   105648251.378  
G30  21495620.335   112960205.018  
G14  22653106.594   119042859.277  
G15  23589186.232   123961977.435  
S37  36894825.893   193883593.112  
G22  20816823.992   109393133.768  
G26  25172691.795   132283387.9573 
> 2008 05 26 06 00 44.9990000  0 10                     
G18  20387968.256   107139462.221  
G09  20488132.198   107665845.198  
G12  20482802.640   107637852.650  
G05  20103729.559   105645778.706  
G30  21494904.771   112956444.482  
G14  22652509.871   119039724.305  
G15  23589576.062   123964026.621  
S37  36894717.711   193883024.454  
G22  20816501.219   109391438.202  
G26  25173138.949   132285740.8012 
> 2008 05 26 06 00 45.9990000  0 10                     
G18  20388156.299   107140449.924  
G09  20488424.310   107667378.482  
G12  20482542.836   107636486.129  
G05  20103259.097   105643306.584  
G30  21494189.399   112952684.282  
G14  22651912.934   119036589.377  
G15  23589966.541   123966075.901  
S37  36894609.431   193882455.812  
G22  20816178.992   109389743.181  
G26  25173586.838   132288093.6222 
> 2008 05 26 06 00 46.9990000  0 10                     
G18  20388344.361   107141437.742  
G09  20488716.087   107668911.524  
G12  20482282.623   107635119.769  
G05  20102788.691   105640834.562  
G30  21493473.614   112948923.978  
G14  22651316.691   119033454.008  
G15  23590356.051   123968124.900  
S37  36894501.066   193881886.492  
G22  20815856.517   109388048.249  
G26  25174035.165   132290446.0592 
> 2008 05 26 06 00 47.9990000  0 10                     
G18  20388532.330   107142426.452  
G09  20489007.867   107670445.144  
G12  20482022.492   107633754.350  
G05  20102318.159   105638363.415  
G30  21492758.320   112945164.323  
G14  22650720.190   119030318.959  
G15  23590746.330   123970174.406  
S37  36894392.766   193881317.338  
G22  20815534.119   109386354.203  
G26  25174484.111   132292798.8362 
> 2008 05 26 06 00 48.9990000  0 10                     
G18  20388720.447   107143415.080  
G09  20489299.835   107671978.357  
G12  20481763.081   107632388.893  
G05  20101847.963   105635892.175  
G30  21492042.791   112941404.349  
G14  22650123.933   119027183.271  
G15  23591136.443   123972223.422  
S37  36894284.295   193880747.270  
G22  20815211.761   109384660.058  
G26  25174932.935   132295150.9812 
> 2008 05 26 06 00 49.9990000  0 10                     
G18  20388908.199   107144404.220  
G09  20489592.214   107673511.762  
G12  20481503.435   107631023.992  
G05  20101377.911   105633421.431  
G30  21491326.892   112937644.655  
G14  22649527.664   119024047.539  
G15  23591526.739   123974272.515  
S37  36894175.665   193880176.915  
G22  20814889.626   109382966.414  
G26  25175380.979   132297503.1472 
> 2008 05 26 06 00 50.9990000  0 10                     
G18  20389096.577   107145393.850  
G09  20489884.278   107675045.333  
G12  20481243.985   107629659.636  
G05  20100908.150   105630951.160  
G30  21490611.507   112933885.210  
G14  22648931.110   119020911.735  
G15  23591916.694   123976321.696  
S37  36894067.014   193879606.301  
G22  20814567.250   109381273.250  
G26  25175829.012   132299855.2532 
> 2008 05 26 06 00 51.9990000  0 10                     
G18  20389284.817   107146383.960  
G09  20490175.505   107676579.036  
G12  20480984.701   107628295.776  
G05  20100437.959   105628481.341  
G30  21489895.865   112930125.990  
G14  22648334.641   119017775.832  
G15  23592306.550   123978370.916  
S37  36893958.483   193879035.885  
G22  20814245.141   109379580.526  
G26  25176277.291   132302207.2702 
> 2008 05 26 06 00 52.9990000  0 10                     
G18  20389473.559   107147374.196  
G09  20490467.233   107678112.562  
G12  20480725.268   107626932.109  
G05  20099968.076   105626011.627  
G30  21489180.454   112926366.683  
G14  22647737.926   119014639.505  
G15  23592696.470   123980419.871  
S37  36893849.811   193878465.607  
G22  20813923.136   109377887.929  
G26  25176726.281   132304558.8532 
> 2008 05 26 06 00 53.9990000  0 10                     
G18  20389662.247   107148365.606  
G09  20490759.380   107679646.920  
G12  20480466.158   107625569.643  
G05  20099498.272   105623543.075  
G30  21488465.335   112922608.295  
G14  22647141.111   119011503.789  
G15  23593086.352   123982469.553  
S37  36893741.402   193877896.018  
G22  20813601.096   109376196.473  
G26  25177174.053   132306911.0792 
> 2008 05 26 06 00 54.9990000  0 10                     
G18  20389850.640   107149357.285  
G09  20491050.938   107681181.246  
G12  20480206.713   107624207.502  
G05  20099028.735   105621074.782  
G30  21487750.242   112918849.968  
G14  22646544.275   119008367.787  
G15  23593476.185   123984519.076  
S37  36893632.989   193877325.872  
G22  20813279.310   109374505.297  
G26  25177620.875   132309263.575  
> 2008 05 26 06 00 55.9990000  0 10                     
G18  20390039.486   107150349.108  
G09  20491342.841   107682715.367  
G12  20479947.498   107622845.537  
G05  20098559.193   105618606.621  
G30  21487035.425   112915091.530  
G14  22645947.385   119005231.361  
G15  23593866.193   123986568.345  
S37  36893524.365   193876755.071  
G22  20812957.488   109372814.226  
G26  25178068.212   132311615.146  
> 2008 05 26 06 00 56.9990000  0 10                     
G18  20390228.106   107151341.460  
G09  20491635.032   107684249.703  
G12  20479688.489   107621484.139  
G05  20098089.800   105616138.961  
G30  21486319.853   112911333.391  
G14  22645350.492   119002094.907  
G15  23594256.001   123988617.713  
S37  36893415.716   193876184.061  
G22  20812635.986   109371123.667  
G26  25178515.077   132313966.718  
> 2008 05 26 06 00 57.9990000  0 10                     
G18  20390417.026   107152333.271  
G09  20491926.534   107685783.164  
G12  20479429.485   107620122.257  
G05  20097619.857   105613670.762  
G30  21485604.787   112907574.463  
G14  22644753.390   118998957.346  
G15  23594645.219   123990666.112  
S37  36893306.727   193875611.943  
G22  20812314.047   109369432.563  
G26  25178962.135   132316317.199  
> 2008 05 26 06 00 58.9990000  0 10                     
G18  20390605.611   107153324.642  
G09  20492218.123   107687315.875  
G12  20479170.144   107618759.978  
G05  20097150.245   105611202.072  
G30  21484889.450   112903814.869  
G14  22644156.030   118995818.777  
G15  23595035.158   123992713.662  
S37  36893197.784   193875039.170  
G22  20811992.295   109367740.996  
G26  25179408.900   132318666.704  
> 2008 05 26 06 00 59.9990000  0 10                     
G18  20390794.404   107154316.592  
G09  20492509.598   107688848.823  
G12  20478910.937   107617398.327  
G05  20096680.489   105608733.977  
G30  21484174.291   112900055.616  
G14  22643558.512   118992680.241  
G15  23595424.406   123994761.367  
S37  36893088.852   193874466.479  
G22  20811670.434   109366050.002  
G26  25179856.087   132321016.276  
> 2008 05 26 06 01 00.9990000  0 10                     
G18  20390983.503   107155310.541  
G09  20492801.645   107690383.462  
G12  20478652.491   107616038.709  
G05  20096211.554   105606267.849  
G30  21483459.151   112896298.137  
G14  22642960.991   118989543.132  
G15  23595813.960   123996810.664  
S37  36892979.958   193873894.808  
G22  20811348.547   109364360.974  
G26  25180303.074   132323367.225  
> 2008 05 26 06 01 01.9990000  0 10                     
G18  20391172.842   107156304.490  
G09  20493093.975   107691917.782  
G12  20478393.909   107614679.157  
G05  20095742.191   105603801.715  
G30  21482744.037   112892540.422  
G14  22642364.294   118986405.472  
G15  23596203.633   123998859.514  
S37  36892871.043   193873322.277  
G22  20811027.306   109362671.947  
G26  25180749.486   132325717.739  
> 2008 05 26 06 01 02.9990000  0 10                     
G18  20391361.945   107157299.033  
G09  20493385.564   107693452.355  
G12  20478135.157   107613320.232  
G05  20095272.954   105601336.176  
G30  21482028.857   112888783.080  
G14  22641767.160   118983267.850  
G15  23596593.750   124000908.563  
S37  36892761.978   193872749.559  
G22  20810705.838   109360983.503  
G26  25181195.971   132328068.236  
> 2008 05 26 06 01 03.9990000  0 10                     
G18  20391551.175   107158293.781  
G09  20493677.706   107694986.829  
G12  20477876.780   107611961.573  
G05  20094803.587   105598870.819  
G30  21481313.685   112885025.695  
G14  22641169.983   118980129.881  
G15  23596983.378   124002957.386  
S37  36892652.919   193872176.466  
G22  20810384.688   109359295.252  
G26  25181642.951   132330418.430  
> 2008 05 26 06 01 04.9990000  0 10                     
G18  20391740.502   107159289.019  
G09  20493969.671   107696521.441  
G12  20477618.360   107610603.436  
G05  20094334.242   105596405.930  
G30  21480598.846   112881268.574  
G14  22640572.785   118976991.808  
G15  23597373.216   124005006.280  
S37  36892543.843   193871603.247  
G22  20810063.736   109357607.453  
G26  25182090.396   132332768.547  
> 2008 05 26 06 01 05.9990000  0 10                     
G18  20391930.063   107160285.127  
G09  20494261.804   107698056.620  
G12  20477360.441   107609246.225  
G05  20093865.288   105593941.906  
G30  21479883.971   112877512.093  
G14  22639975.498   118973854.082  
G15  23597763.495   124007055.621  
S37  36892434.826   193871030.430  
G22  20809742.777   109355920.524  
G26  25182538.173   132335119.056  
> 2008 05 26 06 01 06.9990000  0 10                     
G18  20392119.598   107161281.897  
G09  20494553.803   107699592.118  
G12  20477102.199   107607889.708  
G05  20093396.763   105591478.516  
G30  21479169.477   112873756.035  
G14  22639378.308   118970716.449  
G15  23598153.646   124009105.204  
S37  36892326.046   193870457.970  
G22  20809421.623   109354234.240  
G26  25182985.649   132337469.619  
> 2008 05 26 06 01 07.9990000  0 10                     
G18  20392309.531   107162278.291  
G09  20494846.108   107701126.939  
G12  20476843.923   107606532.871  
G05  20092928.142   105589014.756  
G30  21478454.589   112869999.377  
G14  22638781.280   118967577.886  
G15  23598543.611   124011154.000  
S37  36892217.049   193869884.685  
G22  20809100.819   109352547.564  
G26  25183432.858   132339819.312  
> 2008 05 26 06 01 08.9990000  0 10                     
G18  20392498.870   107163275.017  
G09  20495138.233   107702661.733  
G12  20476585.873   107605176.393  
G05  20092459.450   105586551.294  
G30  21477739.780   112866242.790  
G14  22638183.710   118964439.052  
G15  23598933.824   124013202.696  
S37  36892107.884   193869311.102  
G22  20808780.166   109350861.203  
G26  25183880.370   132342168.785  
> 2008 05 26 06 01 09.9990000  0 10                     
G18  20392688.960   107164272.023  
G09  20495430.555   107704196.493  
G12  20476327.833   107603820.255  
G05  20091990.947   105584088.101  
G30  21477025.211   112862486.264  
G14  22637586.651   118961299.988  
G15  23599323.797   124015251.271  
S37  36891998.545   193868736.825  
G22  20808459.187   109349175.106  
G26  25184327.924   132344518.004  
> 2008 05 26 06 01 10.9990000  0 10                     
G18  20392878.813   107165269.954  
G09  20495722.497   107705731.849  
G12  20476069.809   107602465.066  
G05  20091522.447   105581625.813  
G30  21476310.376   112858730.427  
G14  22636989.313   118958161.264  
G15  23599714.189   124017300.353  
S37  36891889.498   193868162.746  
G22  20808138.591   109347489.912  
G26  25184775.709   132346867.598  
> 2008 05 26 06 01 11.9990000  0 10                     
G18  20393069.121   107166268.139  
G09  20496014.644   107707267.121  
G12  20475812.095   107601110.190  
G05  20091053.621   105579163.760  
G30  21475595.768   112854974.595  
G14  22636391.778   118955022.238  
G15  23600104.511   124019349.247  
S37  36891780.208   193867588.337  
G22  20807818.070   109345804.944  
G26  25185222.684   132349216.911  
> 2008 05 26 06 01 12.9990000  0 10                     
G18  20393259.035   107167267.167  
G09  20496307.126   107708802.939  
G12  20475554.495   107599756.196  
G05  20090585.174   105576702.562  
G30  21474881.085   112851219.386  
G14  22635794.065   118951883.493  
G15  23600494.720   124021398.599  
S37  36891670.857   193867013.966  
G22  20807497.566   109344120.819  
G26  25185670.413   132351566.543  
> 2008 05 26 06 01 13.9990000  0 10                     
G18  20393449.099   107168266.448  
G09  20496599.627   107710338.669  
G12  20475296.637   107598402.505  
G05  20090116.880   105574241.579  
G30  21474166.407   112847464.204  
G14  22635196.800   118948744.445  
G15  23600884.261   124023447.769  
S37  36891561.522   193866439.353  
G22  20807177.468   109342436.925  
G26  25186117.937   132353915.862  
> 2008 05 26 06 01 14.9990000  0 10                     
G18  20393639.454   107169266.357  
G09  20496892.184   107711874.702  
G12  20475039.399   107597049.497  
G05  20089648.834   105571781.212  
G30  21473451.991   112843709.418  
G14  22634598.733   118945605.485  
G15  23601274.133   124025497.143  
S37  36891452.297   193865865.297  
G22  20806856.933   109340753.660  
G26  25186564.658   132356265.257  
> 2008 05 26 06 01 15.9990000  0 10                     
G18  20393829.409   107170266.024  
G09  20497184.432   107713410.173  
G12  20474781.533   107595696.279  
G05  20089180.589   105569320.587  
G30  21472737.440   112839954.154  
G14  22634001.130   118942465.704  
G15  23601663.819   124027545.867  
S37  36891342.968   193865290.612  
G22  20806536.342   109339070.135  
G26  25187010.769   132358613.887  
> 2008 05 26 06 01 16.9990000  0 10                     
G18  20394019.546   107171266.236  
G09  20497476.718   107714945.859  
G12  20474523.958   107594343.667  
G05  20088712.743   105566860.501  
G30  21472022.905   112836199.203  
G14  22633403.389   118939325.917  
G15  23602053.661   124029594.706  
S37  36891233.646   193864715.509  
G22  20806216.113   109337387.134  
G26  25187457.127   132360962.489  
> 2008 05 26 06 01 17.9990000  0 10                     
G18  20394209.958   107172266.839  
G09  20497768.613   107716481.616  
G12  20474266.454   107592991.496  
G05  20088244.864   105564400.774  
G30  21471308.306   112832444.402  
G14  22632805.672   118936185.955  
G15  23602443.573   124031643.529  
S37  36891123.994   193864139.783  
G22  20805895.888   109335704.529  
G26  25187903.225   132363310.965  
> 2008 05 26 06 01 18.9990000  0 10                     
G18  20394400.463   107173267.481  
G09  20498060.490   107718017.104  
G12  20474009.116   107591639.408  
G05  20087776.980   105561941.107  
G30  21470593.680   112828689.429  
G14  22632207.998   118933045.485  
G15  23602832.744   124033691.989  
S37  36891014.311   193863563.270  
G22  20805575.830   109334021.935  
G26  25188349.402   132365658.989  
> 2008 05 26 06 01 19.9990000  0 10                     
G18  20394590.744   107174267.996  
G09  20498352.903   107719552.129  
G12  20473751.647   107590287.237  
G05  20087308.481   105559481.275  
G30  21469879.120   112824934.093  
G14  22631610.271   118929904.333  
G15  23603222.259   124035739.908  
S37  36890904.449   193862986.272  
G22  20805255.501   109332339.209  
G26  25188795.138   132368006.302  
> 2008 05 26 06 01 20.9990000  0 10                     
G18  20394781.475   107175269.464  
G09  20498644.793   107721087.776  
G12  20473494.635   107588936.069  
G05  20086840.688   105557022.385  
G30  21469164.446   112821179.462  
G14  22631012.095   118926763.577  
G15  23603612.258   124037788.313  
S37  36890794.913   193862409.857  
G22  20804935.729   109330657.409  
G26  25189241.056   132370354.029  
> 2008 05 26 06 01 21.9990000  0 10                     
G18  20394971.848   107176270.849  
G09  20498936.953   107722623.021  
G12  20473237.449   107587584.862  
G05  20086372.747   105554563.412  
G30  21468450.130   112817424.534  
G14  22630414.359   118923622.171  
G15  23604001.860   124039836.287  
S37  36890685.251   193861833.035  
G22  20804615.831   109328975.531  
G26  25189687.366   132372701.144  
> 2008 05 26 06 01 22.9990000  0 10                     
G18  20395162.587   107177273.110  
G09  20499229.170   107724158.806  
G12  20472980.612   107586234.564  
G05  20085904.837   105552105.293  
G30  21467735.229   112813670.239  
G14  22629816.690   118920481.085  
G15  23604391.759   124041884.664  
S37  36890575.537   193861256.709  
G22  20804295.856   109327294.502  
G26  25190133.944   132375048.562  
> 2008 05 26 06 01 23.9990000  0 10                     
G18  20395353.257   107178275.470  
G09  20499521.448   107725694.376  
G12  20472723.763   107584884.425  
G05  20085437.158   105549647.267  
G30  21467020.870   112809915.811  
G14  22629218.784   118917339.525  
G15  23604781.968   124043932.721  
S37  36890465.837   193860680.031  
G22  20803976.159   109325613.555  
G26  25190580.705   132377395.627  
> 2008 05 26 06 01 24.9990000  0 10                     
G18  20395544.071   107179277.561  
G09  20499813.805   107727229.324  
G12  20472466.224   107583534.039  
G05  20084969.615   105547188.944  
G30  21466306.389   112806160.877  
G14  22628620.522   118914197.144  
G15  23605172.125   124045980.079  
S37  36890356.067   193860102.471  
G22  20803656.153   109323932.328  
G26  25191027.461   132379741.828  
> 2008 05 26 06 01 25.9990000  0 10                     
G18  20395734.605   107180279.530  
G09  20500105.306   107728763.842  
G12  20472209.003   107582183.581  
G05  20084501.673   105544730.473  
G30  21465591.715   112802405.585  
G14  22628022.424   118911054.074  
G15  23605561.631   124048026.930  
S37  36890245.787   193859523.578  
G22  20803336.486   109322250.962  
G26  25191474.396   132382087.384  
> 2008 05 26 06 01 26.9990000  0 10                     
G18  20395925.680   107181282.744  
G09  20500397.523   107730299.285  
G12  20471952.301   107580834.429  
G05  20084033.894   105542273.257  
G30  21464877.206   112798651.323  
G14  22627424.431   118907911.716  
G15  23605950.875   124050074.613  
S37  36890135.671   193858944.976  
G22  20803016.623   109320570.836  
G26  25191920.755   132384433.723  
> 2008 05 26 06 01 27.9990000  0 10                     
G18  20396116.791   107182286.250  
G09  20500689.998   107731834.690  
G12  20471695.451   107579485.607  
G05  20083566.254   105539816.306  
G30  21464162.755   112794897.116  
G14  22626826.700   118904769.081  
G15  23606340.582   124052122.163  
S37  36890025.229   193858365.990  
G22  20802696.878   109318890.986  
G26  25192367.049   132386779.686  
> 2008 05 26 06 01 28.9990000  0 10                     
G18  20396307.940   107183290.946  
G09  20500982.127   107733370.960  
G12  20471439.277   107578138.047  
G05  20083098.963   105537360.544  
G30  21463448.439   112791143.885  
G14  22626229.130   118901627.103  
G15  23606730.704   124054170.485  
S37  36889915.122   193857787.422  
G22  20802377.343   109317212.336  
G26  25192814.342   132389126.399  
> 2008 05 26 06 01 29.9990000  0 10                     
G18  20396499.085   107184295.168  
G09  20501274.340   107734906.436  
G12  20471182.541   107576790.051  
G05  20082631.525   105534904.298  
G30  21462734.110   112787389.948  
G14  22625631.168   118898484.072  
G15  23607120.389   124056217.925  
S37  36889804.645   193857207.603  
G22  20802057.860   109315533.196  
G26  25193262.019   132391472.060  
> 2008 05 26 06 01 30.9990000  0 10                     
G18  20396690.195   107185300.426  
G09  20501566.714   107736442.607  
G12  20470926.144   107575443.135  
G05  20082164.477   105532449.082  
G30  21462019.868   112783636.809  
G14  22625033.141   118895341.542  
G15  23607510.004   124058265.993  
S37  36889694.495   193856628.325  
G22  20801738.477   109313855.070  
G26  25193708.264   132393818.239  
> 2008 05 26 06 01 31.9990000  0 10                     
G18  20396881.419   107186305.711  
G09  20501858.595   107737978.513  
G12  20470669.792   107574096.302  
G05  20081697.122   105529993.883  
G30  21461305.831   112779883.473  
G14  22624434.991   118892198.467  
G15  23607899.951   124060313.654  
S37  36889584.027   193856048.726  
G22  20801419.256   109312176.966  
G26  25194154.605   132396163.872  
> 2008 05 26 06 01 32.9990000  0 10                     
G18  20397072.839   107187311.327  
G09  20502151.065   107739514.403  
G12  20470413.959   107572749.838  
G05  20081230.232   105527539.008  
G30  21460591.563   112776130.230  
G14  22623836.375   118889055.178  
G15  23608289.663   124062361.227  
S37  36889473.645   193855469.068  
G22  20801100.248   109310499.181  
G26  25194600.895   132398509.302  
> 2008 05 26 06 01 33.9990000  0 10                     
G18  20397264.237   107188317.395  
G09  20502443.618   107741050.419  
G12  20470157.523   107571403.875  
G05  20080762.980   105525084.569  
G30  21459877.357   112772377.218  
G14  22623238.251   118885911.772  
G15  23608679.117   124064408.827  
S37  36889363.277   193854889.332  
G22  20800781.105   109308821.826  
G26  25195047.302   132400854.638  
> 2008 05 26 06 01 34.9990000  0 10                     
G18  20397456.142   107189324.040  
G09  20502735.686   107742586.700  
G12  20469901.515   107570058.545  
G05  20080295.908   105522630.696  
G30  21459163.132   112768624.565  
G14  22622640.232   118882768.400  
G15  23609069.037   124066456.614  
S37  36889253.052   193854309.767  
G22  20800462.146   109307145.043  
G26  25195493.321   132403200.039  
> 2008 05 26 06 01 35.9990000  0 10                     
G18  20397647.732   107190330.874  
G09  20503028.170   107744122.848  
G12  20469645.237   107568713.441  
G05  20079829.010   105520176.984  
G30  21458448.991   112764871.862  
G14  22622041.633   118879624.642  
G15  23609458.832   124068504.154  
S37  36889142.741   193853730.119  
G22  20800142.811   109305468.432  
G26  25195938.707   132405545.034  
> 2008 05 26 06 01 36.9990000  0 10                     
G18  20397839.479   107191338.847  
G09  20503320.805   107745659.790  
G12  20469389.621   107567369.522  
G05  20079362.425   105517724.407  
G30  21457735.137   112761120.068  
G14  22621443.648   118876481.479  
G15  23609849.145   124070552.431  
S37  36889032.438   193853150.896  
G22  20799824.192   109303792.933  
G26  25196384.849   132407890.684  
> 2008 05 26 06 01 37.9990000  0 10                     
G18  20398031.296   107192346.639  
G09  20503613.415   107747196.236  
G12  20469133.954   107566025.476  
G05  20078895.981   105515271.647  
G30  21457021.245   112757367.871  
G14  22620845.582   118873337.556  
G15  23610238.721   124072600.103  
S37  36888921.970   193852570.802  
G22  20799505.446   109302117.258  
G26  25196830.715   132410235.590  
> 2008 05 26 06 01 38.9990000  0 10                     
G18  20398222.751   107193354.072  
G09  20503906.129   107748731.988  
G12  20468877.946   107564681.111  
G05  20078429.039   105512818.502  
G30  21456307.382   112753615.075  
G14  22620247.210   118870192.724  
G15  23610628.236   124074646.992  
S37  36888811.332   193851989.645  
G22  20799186.552   109300441.203  
G26  25197276.376   132412579.604  
> 2008 05 26 06 01 39.9990000  0 10                     
G18  20398414.564   107194362.051  
G09  20504198.442   107750267.955  
G12  20468622.196   107563337.340  
G05  20077962.250   105510365.892  
G30  21455593.432   112749862.586  
G14  22619648.745   118867047.869  
G15  23611018.144   124076693.976  
S37  36888700.553   193851408.053  
G22  20798867.632   109298765.671  
G26  25197722.984   132414923.623  
> 2008 05 26 06 01 40.9990000  0 10                     
G18  20398606.207   107195370.228  
G09  20504490.642   107751803.789  
G12  20468366.546   107561993.801  
G05  20077495.396   105507913.457  
G30  21454879.161   112746110.070  
G14  22619050.142   118863902.663  
G15  23611407.807   124078740.755  
S37  36888590.054   193850826.449  
G22  20798548.886   109297090.309  
G26  25198168.780   132417267.284  
> 2008 05 26 06 01 41.9990000  0 10                     
G18  20398798.242   107196378.373  
G09  20504782.628   107753339.277  
G12  20468111.057   107560650.311  
G05  20077028.528   105505461.017  
G30  21454165.106   112742357.307  
G14  22618451.670   118860756.883  
G15  23611797.152   124080787.143  
S37  36888479.106   193850244.136  
G22  20798230.053   109295414.937  
G26  25198614.132   132419610.428  
> 2008 05 26 06 01 42.9990000  0 10                     
G18  20398989.610   107197386.853  
G09  20505075.198   107754874.786  
G12  20467855.525   107559307.201  
G05  20076561.919   105503008.897  
G30  21453450.725   112738604.648  
G14  22617853.337   118857610.878  
G15  23612186.476   124082833.394  
S37  36888368.119   193849661.232  
G22  20797911.229   109293739.896  
G26  25199060.199   132421953.356  
> 2008 05 26 06 01 43.9990000  0 10                     
G18  20399181.500   107198395.564  
G09  20505367.057   107756410.197  
G12  20467599.682   107557964.356  
G05  20076095.299   105500556.975  
G30  21452736.858   112734851.983  
G14  22617254.808   118854464.542  
G15  23612575.817   124084879.468  
S37  36888257.257   193849077.877  
G22  20797592.391   109292065.052  
G26  25199506.654   132424295.960  
> 2008 05 26 06 01 44.9990000  0 10                     
G18  20399373.784   107199405.510  
G09  20505659.261   107757946.505  
G12  20467344.450   107556622.789  
G05  20075628.715   105498106.276  
G30  21452022.533   112731100.310  
G14  22616656.156   118851318.878  
G15  23612965.531   124086926.357  
S37  36888146.382   193848495.547  
G22  20797274.020   109290391.426  
G26  25199952.603   132426639.274  
> 2008 05 26 06 01 45.9990000  0 10                     
G18  20399566.177   107200415.885  
G09  20505951.491   107759482.913  
G12  20467088.957   107555281.706  
G05  20075162.354   105495655.995  
G30  21451308.697   112727348.858  
G14  22616057.522   118848173.082  
G15  23613355.374   124088973.258  
S37  36888035.408   193847912.925  
G22  20796955.715   109288718.224  
G26  25200399.123   132428982.484  
> 2008 05 26 06 01 46.9990000  0 10                     
G18  20399758.857   107201427.037  
G09  20506243.507   107761019.783  
G12  20466834.018   107553941.450  
G05  20074696.135   105493206.486  
G30  21450594.795   112723597.950  
G14  22615458.744   118845027.534  
G15  23613744.330   124091020.533  
S37  36887924.638   193847330.363  
G22  20796637.497   109287045.794  
G26  25200845.439   132431325.936  
> 2008 05 26 06 01 47.9990000  0 10                     
G18  20399951.215   107202438.535  
G09  20506536.060   107762556.658  
G12  20466579.511   107552601.602  
G05  20074229.957   105490757.335  
G30  21449881.339   112719847.164  
G14  22614859.787   118841881.765  
G15  23614133.657   124093067.742  
S37  36887814.056   193846747.724  
G22  20796319.349   109285373.699  
G26  25201291.772   132433669.217  
> 2008 05 26 06 01 48.9990000  0 10                     
G18  20400143.796   107203450.293  
G09  20506828.587   107764093.473  
G12  20466324.847   107551262.028  
